{
"type": "FeatureCollection",
"name": "spielplaetze",
"crs": { "type": "name", "properties": { "name": "urn:ogc:def:crs:OGC:1.3:CRS84" } },
"features": [
{ "type": "Feature", "properties": { "ID": 754, "Name": "SP FICHTENWEG", "Groesse": 2069.0, "Bereich": "A", "Ball": 2, "Skater": "", "Streetball": "ja", "Rechtswert": 3407670.0, "Hochwert": 5753819.0 }, "geometry": { "type": "Point", "coordinates": [ 7.657179640933186, 51.910707342856689 ] } },
{ "type": "Feature", "properties": { "ID": 755, "Name": "SP PESTALOZZISTRASSE", "Groesse": 1060.0, "Bereich": "B\/C", "Ball": 2, "Skater": "", "Streetball": "", "Rechtswert": 3404112.0, "Hochwert": 5763870.0 }, "geometry": { "type": "Point", "coordinates": [ 7.602688095915992, 52.000412857809728 ] } },
{ "type": "Feature", "properties": { "ID": 756, "Name": "SP GALGENHEIDE", "Groesse": 472.0, "Bereich": "B\/C", "Ball": 0, "Skater": "", "Streetball": "", "Rechtswert": 3403618.0, "Hochwert": 5755581.0 }, "geometry": { "type": "Point", "coordinates": [ 7.597820962690981, 51.925852768688017 ] } },
{ "type": "Feature", "properties": { "ID": 757, "Name": "SP FRANKENWEG", "Groesse": 1231.0, "Bereich": "B\/C", "Ball": 0, "Skater": "", "Streetball": "", "Rechtswert": 3408824.0, "Hochwert": 5754826.0 }, "geometry": { "type": "Point", "coordinates": [ 7.673678626242277, 51.919945303837714 ] } },
{ "type": "Feature", "properties": { "ID": 758, "Name": "SP AM PASTORENBUSCH", "Groesse": 3185.0, "Bereich": "A", "Ball": 2, "Skater": "", "Streetball": "ja", "Rechtswert": 3401082.0, "Hochwert": 5762924.0 }, "geometry": { "type": "Point", "coordinates": [ 7.558854947870858, 51.991382361460758 ] } },
{ "type": "Feature", "properties": { "ID": 759, "Name": "SP AM PASTORENBUSCH", "Groesse": 3185.0, "Bereich": "A", "Ball": 2, "Skater": "", "Streetball": "ja", "Rechtswert": 3401082.0, "Hochwert": 5762924.0 }, "geometry": { "type": "Point", "coordinates": [ 7.558854947870858, 51.991382361460758 ] } },
{ "type": "Feature", "properties": { "ID": 760, "Name": "SP AM PASTORENBUSCH", "Groesse": 3185.0, "Bereich": "A", "Ball": 2, "Skater": "", "Streetball": "ja", "Rechtswert": 3401082.0, "Hochwert": 5762924.0 }, "geometry": { "type": "Point", "coordinates": [ 7.558854947870858, 51.991382361460758 ] } },
{ "type": "Feature", "properties": { "ID": 761, "Name": "SP UFERSTRASSE", "Groesse": 444.0, "Bereich": "B\/C", "Ball": 0, "Skater": "", "Streetball": "", "Rechtswert": 3410990.0, "Hochwert": 5754464.0 }, "geometry": { "type": "Point", "coordinates": [ 7.705246552884541, 51.91704287670607 ] } },
{ "type": "Feature", "properties": { "ID": 762, "Name": "SP AM STEINTOR", "Groesse": 450.0, "Bereich": "B\/C", "Ball": 0, "Skater": "", "Streetball": "", "Rechtswert": 3412657.0, "Hochwert": 5754266.0 }, "geometry": { "type": "Point", "coordinates": [ 7.729518809474019, 51.915527563151137 ] } },
{ "type": "Feature", "properties": { "ID": 763, "Name": "SP LIBORISTRASSE", "Groesse": 1290.0, "Bereich": "C", "Ball": 0, "Skater": "", "Streetball": "", "Rechtswert": 3407482.0, "Hochwert": 5758648.0 }, "geometry": { "type": "Point", "coordinates": [ 7.653151170529879, 51.954064806681679 ] } },
{ "type": "Feature", "properties": { "ID": 764, "Name": "SP KIRCHHOFFWEG", "Groesse": 600.0, "Bereich": "B\/C", "Ball": 0, "Skater": "", "Streetball": "", "Rechtswert": 3403721.0, "Hochwert": 5762677.0 }, "geometry": { "type": "Point", "coordinates": [ 7.597331189848346, 51.989626496063927 ] } },
{ "type": "Feature", "properties": { "ID": 765, "Name": "SP AM HOF HESSELMANN", "Groesse": 1494.0, "Bereich": "B\/C", "Ball": 0, "Skater": "", "Streetball": "", "Rechtswert": 3402251.0, "Hochwert": 5756247.0 }, "geometry": { "type": "Point", "coordinates": [ 7.577766253597205, 51.931598449381148 ] } },
{ "type": "Feature", "properties": { "ID": 766, "Name": "SP RUBENSSTRASSE", "Groesse": 425.0, "Bereich": "B\/C", "Ball": 0, "Skater": "", "Streetball": "", "Rechtswert": 3408900.0, "Hochwert": 5752849.0 }, "geometry": { "type": "Point", "coordinates": [ 7.675305281663702, 51.902194145639157 ] } },
{ "type": "Feature", "properties": { "ID": 767, "Name": "SP ALTE SCHANZE", "Groesse": 1030.0, "Bereich": "B\/C", "Ball": 0, "Skater": "", "Streetball": "", "Rechtswert": 3403231.0, "Hochwert": 5763829.0 }, "geometry": { "type": "Point", "coordinates": [ 7.589875344623756, 51.999891765262767 ] } },
{ "type": "Feature", "properties": { "ID": 768, "Name": "SP KLEIHORSTSTRASSE   (BALLSPIELPLATZ)", "Groesse": 1151.0, "Bereich": "A+B\/C", "Ball": 1, "Skater": "", "Streetball": "", "Rechtswert": 3403790.0, "Hochwert": 5757007.0 }, "geometry": { "type": "Point", "coordinates": [ 7.599922196554327, 51.938694841817089 ] } },
{ "type": "Feature", "properties": { "ID": 769, "Name": "SP ELISABETH-KIRCHPLATZ", "Groesse": 886.0, "Bereich": "B\/C", "Ball": 0, "Skater": "", "Streetball": "", "Rechtswert": 3406675.0, "Hochwert": 5758738.0 }, "geometry": { "type": "Point", "coordinates": [ 7.641391478269086, 51.954738726905852 ] } },
{ "type": "Feature", "properties": { "ID": 770, "Name": "SP AASEE: MECKLENBECKER STRASSE", "Groesse": 866.0, "Bereich": "B\/C", "Ball": 0, "Skater": "", "Streetball": "", "Rechtswert": 3403962.0, "Hochwert": 5757922.0 }, "geometry": { "type": "Point", "coordinates": [ 7.602167193339966, 51.94694562791129 ] } },
{ "type": "Feature", "properties": { "ID": 771, "Name": "SP AASEE: MECKLENBECKER STRASSE", "Groesse": 866.0, "Bereich": "B\/C", "Ball": 0, "Skater": "", "Streetball": "", "Rechtswert": 3403962.0, "Hochwert": 5757922.0 }, "geometry": { "type": "Point", "coordinates": [ 7.602167193339966, 51.94694562791129 ] } },
{ "type": "Feature", "properties": { "ID": 772, "Name": "SP VON-OSSIETZKY-STRASSE", "Groesse": 1790.0, "Bereich": "A+B\/C", "Ball": 0, "Skater": "", "Streetball": "", "Rechtswert": 3403876.0, "Hochwert": 5757413.0 }, "geometry": { "type": "Point", "coordinates": [ 7.601058977683886, 51.942357523574387 ] } },
{ "type": "Feature", "properties": { "ID": 773, "Name": "SP AM HAUPTZENTRUM KINDERHAUS", "Groesse": 800.0, "Bereich": "B\/C", "Ball": 0, "Skater": "", "Streetball": "", "Rechtswert": 3404283.0, "Hochwert": 5763249.0 }, "geometry": { "type": "Point", "coordinates": [ 7.605350519291826, 51.994862820691424 ] } },
{ "type": "Feature", "properties": { "ID": 774, "Name": "SP BIEDERLACKWEG", "Groesse": 660.0, "Bereich": "B\/C", "Ball": 2, "Skater": "", "Streetball": "ja", "Rechtswert": 3407964.0, "Hochwert": 5756314.0 }, "geometry": { "type": "Point", "coordinates": [ 7.660784516085339, 51.933173676407336 ] } },
{ "type": "Feature", "properties": { "ID": 775, "Name": "SP GESCHERWEG - WEST", "Groesse": 820.0, "Bereich": "B\/C", "Ball": 0, "Skater": "", "Streetball": "", "Rechtswert": 3402048.0, "Hochwert": 5761005.0 }, "geometry": { "type": "Point", "coordinates": [ 7.57346099156832, 51.974311913636143 ] } },
{ "type": "Feature", "properties": { "ID": 776, "Name": "SP GESCHERWEG - WEST", "Groesse": 820.0, "Bereich": "B\/C", "Ball": 0, "Skater": "", "Streetball": "", "Rechtswert": 3402048.0, "Hochwert": 5761005.0 }, "geometry": { "type": "Point", "coordinates": [ 7.57346099156832, 51.974311913636143 ] } },
{ "type": "Feature", "properties": { "ID": 777, "Name": "SP AASEEMARKT, GOERDELERSTRASSE", "Groesse": 1500.0, "Bereich": "B\/C", "Ball": 0, "Skater": "", "Streetball": "", "Rechtswert": 3404322.0, "Hochwert": 5757750.0 }, "geometry": { "type": "Point", "coordinates": [ 7.607449170217752, 51.945462222670479 ] } },
{ "type": "Feature", "properties": { "ID": 778, "Name": "SP AASEEMARKT, GOERDELERSTRASSE", "Groesse": 1500.0, "Bereich": "B\/C", "Ball": 0, "Skater": "", "Streetball": "", "Rechtswert": 3404322.0, "Hochwert": 5757750.0 }, "geometry": { "type": "Point", "coordinates": [ 7.607449170217752, 51.945462222670479 ] } },
{ "type": "Feature", "properties": { "ID": 779, "Name": "SP LEGDENWEG-OST", "Groesse": 1480.0, "Bereich": "B\/C", "Ball": 0, "Skater": "", "Streetball": "", "Rechtswert": 3401704.0, "Hochwert": 5761374.0 }, "geometry": { "type": "Point", "coordinates": [ 7.56835091748775, 51.977566552683435 ] } },
{ "type": "Feature", "properties": { "ID": 780, "Name": "SP MINDENER STRASSE", "Groesse": 1004.0, "Bereich": "B\/C", "Ball": 2, "Skater": "", "Streetball": "ja", "Rechtswert": 3407167.0, "Hochwert": 5758945.0 }, "geometry": { "type": "Point", "coordinates": [ 7.648490314459103, 51.956680891481895 ] } },
{ "type": "Feature", "properties": { "ID": 781, "Name": "SP ALBERT-SCHWEITZER-SCHULE", "Groesse": 430.0, "Bereich": "B\/C", "Ball": 0, "Skater": "", "Streetball": "ja", "Rechtswert": 3407759.0, "Hochwert": 5759212.0 }, "geometry": { "type": "Point", "coordinates": [ 7.657028016208121, 51.959178314456032 ] } },
{ "type": "Feature", "properties": { "ID": 782, "Name": "SP RIGAWEG", "Groesse": 1719.0, "Bereich": "B\/C", "Ball": 0, "Skater": "", "Streetball": "", "Rechtswert": 3404463.0, "Hochwert": 5761082.0 }, "geometry": { "type": "Point", "coordinates": [ 7.608573355679019, 51.975423805753671 ] } },
{ "type": "Feature", "properties": { "ID": 783, "Name": "SP THOMAS-MORUS-SCHULE", "Groesse": 517.0, "Bereich": "B\/C", "Ball": 0, "Skater": "", "Streetball": "Balltrichter", "Rechtswert": 3406955.0, "Hochwert": 5760927.0 }, "geometry": { "type": "Point", "coordinates": [ 7.644870765470205, 51.974453624025131 ] } },
{ "type": "Feature", "properties": { "ID": 784, "Name": "SP SAMLANDUFER", "Groesse": 2659.0, "Bereich": "B\/C", "Ball": 0, "Skater": "", "Streetball": "", "Rechtswert": 3407955.0, "Hochwert": 5762966.0 }, "geometry": { "type": "Point", "coordinates": [ 7.65887271935918, 51.992940335892825 ] } },
{ "type": "Feature", "properties": { "ID": 785, "Name": "SP SAMLANDUFER", "Groesse": 2659.0, "Bereich": "B\/C", "Ball": 0, "Skater": "", "Streetball": "", "Rechtswert": 3407955.0, "Hochwert": 5762966.0 }, "geometry": { "type": "Point", "coordinates": [ 7.65887271935918, 51.992940335892825 ] } },
{ "type": "Feature", "properties": { "ID": 786, "Name": "SP IDASCHULE, VÖRNSTE ESCH", "Groesse": 679.0, "Bereich": "B\/C", "Ball": 0, "Skater": "", "Streetball": "", "Rechtswert": 3408782.0, "Hochwert": 5756203.0 }, "geometry": { "type": "Point", "coordinates": [ 7.672703748158869, 51.932310902235784 ] } },
{ "type": "Feature", "properties": { "ID": 787, "Name": "SP SANKT-JOSEF-KIRCHPLATZ", "Bereich": "", "Skater": "", "Streetball": "", "Rechtswert": 3405662.0, "Hochwert": 5758167.0 }, "geometry": { "type": "Point", "coordinates": [ 7.626817033833904, 51.949437583177158 ] } },
{ "type": "Feature", "properties": { "ID": 788, "Name": "SP ALBACHTENER STRASSE", "Groesse": 2430.0, "Bereich": "A+B\/C", "Ball": 2, "Skater": "", "Streetball": "", "Rechtswert": 3398557.0, "Hochwert": 5755702.0 }, "geometry": { "type": "Point", "coordinates": [ 7.524238488587376, 51.926041423465435 ] } },
{ "type": "Feature", "properties": { "ID": 789, "Name": "SP BODELSCHWINGHSTRASSE", "Groesse": 1012.0, "Bereich": "B\/C", "Ball": 0, "Skater": "", "Streetball": "", "Rechtswert": 3406943.0, "Hochwert": 5753505.0 }, "geometry": { "type": "Point", "coordinates": [ 7.646702601981798, 51.907765160381565 ] } },
{ "type": "Feature", "properties": { "ID": 790, "Name": "SP BOELESTRASSE", "Groesse": 3300.0, "Bereich": "A", "Ball": 2, "Skater": "", "Streetball": "", "Rechtswert": 3410111.0, "Hochwert": 5754479.0 }, "geometry": { "type": "Point", "coordinates": [ 7.692470616951423, 51.917036559023941 ] } },
{ "type": "Feature", "properties": { "ID": 791, "Name": "SP LANGE KUHLE", "Groesse": 4349.0, "Bereich": "A", "Ball": 2, "Skater": "", "Streetball": "ja", "Rechtswert": 3404488.0, "Hochwert": 5750943.0 }, "geometry": { "type": "Point", "coordinates": [ 7.611748505744719, 51.884330603980032 ] } },
{ "type": "Feature", "properties": { "ID": 640, "Name": "SP HOPPENGARTEN-SÜD", "Groesse": 2965.0, "Bereich": "A", "Ball": 0, "Skater": "", "Streetball": "", "Rechtswert": 3407336.0, "Hochwert": 5760933.0 }, "geometry": { "type": "Point", "coordinates": [ 7.650412118939931, 51.974571139598261 ] } },
{ "type": "Feature", "properties": { "ID": 641, "Name": "SP AM HORNBACH", "Groesse": 2666.0, "Bereich": "A", "Ball": 2, "Skater": "ja", "Streetball": "ja", "Rechtswert": 3411970.0, "Hochwert": 5763979.0 }, "geometry": { "type": "Point", "coordinates": [ 7.717050262697682, 52.002692752809274 ] } },
{ "type": "Feature", "properties": { "ID": 642, "Name": "SP VOGELROHRSHEIDE", "Groesse": 1995.0, "Bereich": "B\/C", "Ball": 2, "Skater": "", "Streetball": "ja", "Rechtswert": 3409391.0, "Hochwert": 5754516.0 }, "geometry": { "type": "Point", "coordinates": [ 7.681999211787073, 51.917252403239075 ] } },
{ "type": "Feature", "properties": { "ID": 643, "Name": "SP KUPFERBRINK", "Groesse": 1077.0, "Bereich": "B\/C", "Ball": 0, "Skater": "", "Streetball": "", "Rechtswert": 3411926.0, "Hochwert": 5755060.0 }, "geometry": { "type": "Point", "coordinates": [ 7.718694605670472, 51.922546816425864 ] } },
{ "type": "Feature", "properties": { "ID": 644, "Name": "SP BENTELERSTRASSE", "Groesse": 777.0, "Bereich": "B\/C", "Ball": 0, "Skater": "", "Streetball": "", "Rechtswert": 3403361.0, "Hochwert": 5760899.0 }, "geometry": { "type": "Point", "coordinates": [ 7.59259241833075, 51.973589215788898 ] } },
{ "type": "Feature", "properties": { "ID": 645, "Name": "SP HÄGER", "Groesse": 1038.0, "Bereich": "B\/C", "Ball": 0, "Skater": "", "Streetball": "", "Rechtswert": 3401380.0, "Hochwert": 5766133.0 }, "geometry": { "type": "Point", "coordinates": [ 7.562269092578188, 52.020266725311295 ] } },
{ "type": "Feature", "properties": { "ID": 646, "Name": "SP MEMMERTWEG-NORD", "Groesse": 1137.0, "Bereich": "A", "Ball": 0, "Skater": "", "Streetball": "", "Rechtswert": 3405170.0, "Hochwert": 5763507.0 }, "geometry": { "type": "Point", "coordinates": [ 7.618189404774695, 51.997332943360917 ] } },
{ "type": "Feature", "properties": { "ID": 647, "Name": "SP MEMMERTWEG-NORD", "Groesse": 1137.0, "Bereich": "A", "Ball": 0, "Skater": "", "Streetball": "", "Rechtswert": 3405170.0, "Hochwert": 5763507.0 }, "geometry": { "type": "Point", "coordinates": [ 7.618189404774695, 51.997332943360917 ] } },
{ "type": "Feature", "properties": { "ID": 648, "Name": "SP AM KALVARIENBERG", "Groesse": 816.0, "Bereich": "B\/C", "Ball": 0, "Skater": "", "Streetball": "", "Rechtswert": 3406863.0, "Hochwert": 5753048.0 }, "geometry": { "type": "Point", "coordinates": [ 7.645663843572001, 51.903645645074597 ] } },
{ "type": "Feature", "properties": { "ID": 649, "Name": "SP CANISIUSWEG", "Groesse": 981.0, "Bereich": "B\/C", "Ball": 0, "Skater": "", "Streetball": "", "Rechtswert": 3403703.0, "Hochwert": 5757166.0 }, "geometry": { "type": "Point", "coordinates": [ 7.598613036695454, 51.940108387847083 ] } },
{ "type": "Feature", "properties": { "ID": 650, "Name": "SP NISINGHOVERWEG", "Groesse": 537.0, "Bereich": "B\/C", "Ball": 0, "Skater": "", "Streetball": "", "Rechtswert": 3405626.0, "Hochwert": 5753337.0 }, "geometry": { "type": "Point", "coordinates": [ 7.627616743182394, 51.906034306499159 ] } },
{ "type": "Feature", "properties": { "ID": 651, "Name": "SP STAUFENSTRASSE", "Groesse": 473.0, "Bereich": "B\/C", "Ball": 0, "Skater": "", "Streetball": "", "Rechtswert": 3406851.0, "Hochwert": 5759913.0 }, "geometry": { "type": "Point", "coordinates": [ 7.643632575718937, 51.965325508503497 ] } },
{ "type": "Feature", "properties": { "ID": 652, "Name": "SP DAHLWEG", "Groesse": 4474.0, "Bereich": "A+B\/C", "Ball": 2, "Skater": "", "Streetball": "", "Rechtswert": 3405604.0, "Hochwert": 5757500.0 }, "geometry": { "type": "Point", "coordinates": [ 7.626156662622694, 51.943434829450112 ] } },
{ "type": "Feature", "properties": { "ID": 653, "Name": "SP SEPPENRADEWEG", "Groesse": 719.0, "Bereich": "B\/C", "Ball": 0, "Skater": "", "Streetball": "", "Rechtswert": 3404029.0, "Hochwert": 5756065.0 }, "geometry": { "type": "Point", "coordinates": [ 7.6036589779805, 51.930272375800307 ] } },
{ "type": "Feature", "properties": { "ID": 654, "Name": "SP AM BURLOH", "Groesse": 750.0, "Bereich": "B\/C", "Ball": 0, "Skater": "", "Streetball": "", "Rechtswert": 3404328.0, "Hochwert": 5763165.0 }, "geometry": { "type": "Point", "coordinates": [ 7.606028905270835, 51.994115850284601 ] } },
{ "type": "Feature", "properties": { "ID": 655, "Name": "SP GIEVENBACHTAL", "Groesse": 1237.0, "Bereich": "A+B\/C", "Ball": 0, "Skater": "", "Streetball": "", "Rechtswert": 3401833.0, "Hochwert": 5760705.0 }, "geometry": { "type": "Point", "coordinates": [ 7.570418892731576, 51.971578617114858 ] } },
{ "type": "Feature", "properties": { "ID": 656, "Name": "SP GIEVENBACHTAL", "Groesse": 1237.0, "Bereich": "A+B\/C", "Ball": 0, "Skater": "", "Streetball": "", "Rechtswert": 3401833.0, "Hochwert": 5760705.0 }, "geometry": { "type": "Point", "coordinates": [ 7.570418892731576, 51.971578617114858 ] } },
{ "type": "Feature", "properties": { "ID": 657, "Name": "SP GRÜNER GRUND", "Groesse": 2199.0, "Bereich": "B\/C", "Ball": 2, "Skater": "", "Streetball": "", "Rechtswert": 3404754.0, "Hochwert": 5757251.0 }, "geometry": { "type": "Point", "coordinates": [ 7.61386805306015, 51.941052852413776 ] } },
{ "type": "Feature", "properties": { "ID": 658, "Name": "SP GRÜNER GRUND", "Groesse": 2199.0, "Bereich": "B\/C", "Ball": 2, "Skater": "", "Streetball": "", "Rechtswert": 3404754.0, "Hochwert": 5757251.0 }, "geometry": { "type": "Point", "coordinates": [ 7.61386805306015, 51.941052852413776 ] } },
{ "type": "Feature", "properties": { "ID": 659, "Name": "SP MEYERBEERSTRASSE", "Groesse": 1500.0, "Bereich": "A", "Ball": 0, "Skater": "", "Streetball": "ja", "Rechtswert": 3402388.0, "Hochwert": 5755726.0 }, "geometry": { "type": "Point", "coordinates": [ 7.579905073275307, 51.926941422827682 ] } },
{ "type": "Feature", "properties": { "ID": 660, "Name": "SP GRÜNER FINGER", "Groesse": 233.0, "Bereich": "A", "Ball": 0, "Skater": "ja", "Streetball": "ja", "Rechtswert": 3401821.0, "Hochwert": 5760011.0 }, "geometry": { "type": "Point", "coordinates": [ 7.570442579012815, 51.965341155654066 ] } },
{ "type": "Feature", "properties": { "ID": 661, "Name": "SP LINDENBREIE", "Groesse": 1700.0, "Bereich": "B\/C", "Ball": 0, "Skater": "", "Streetball": "", "Rechtswert": 3401604.0, "Hochwert": 5759322.0 }, "geometry": { "type": "Point", "coordinates": [ 7.567483493393469, 51.959112402181148 ] } },
{ "type": "Feature", "properties": { "ID": 662, "Name": "SP GRÜNER GRUND", "Groesse": 2199.0, "Bereich": "B\/C", "Ball": 2, "Skater": "", "Streetball": "", "Rechtswert": 3404754.0, "Hochwert": 5757251.0 }, "geometry": { "type": "Point", "coordinates": [ 7.61386805306015, 51.941052852413776 ] } },
{ "type": "Feature", "properties": { "ID": 663, "Name": "SP GRÜNER GRUND", "Groesse": 2199.0, "Bereich": "B\/C", "Ball": 2, "Skater": "", "Streetball": "", "Rechtswert": 3404754.0, "Hochwert": 5757251.0 }, "geometry": { "type": "Point", "coordinates": [ 7.61386805306015, 51.941052852413776 ] } },
{ "type": "Feature", "properties": { "ID": 664, "Name": "SP LEGDENWEG-WEST", "Groesse": 1489.0, "Bereich": "B\/C", "Ball": 0, "Skater": "ja", "Streetball": "ja", "Rechtswert": 3401351.0, "Hochwert": 5761262.0 }, "geometry": { "type": "Point", "coordinates": [ 7.563247296617039, 51.976497772893467 ] } },
{ "type": "Feature", "properties": { "ID": 665, "Name": "SP SPICHERNSTRASSE", "Groesse": 2150.0, "Bereich": "A+B\/C", "Ball": 2, "Skater": "", "Streetball": "", "Rechtswert": 3405397.0, "Hochwert": 5756652.0 }, "geometry": { "type": "Point", "coordinates": [ 7.623380266063701, 51.935780511157084 ] } },
{ "type": "Feature", "properties": { "ID": 666, "Name": "SP IM SEIHOF", "Groesse": 1925.0, "Bereich": "", "Ball": 0, "Skater": "", "Streetball": "", "Rechtswert": 3399469.0, "Hochwert": 5759038.0 }, "geometry": { "type": "Point", "coordinates": [ 7.536517523634633, 51.956179208028608 ] } },
{ "type": "Feature", "properties": { "ID": 667, "Name": "SP SCHARNHORSTSTRASSE", "Groesse": 1072.0, "Bereich": "B\/C", "Ball": 0, "Skater": "", "Streetball": "", "Rechtswert": 3404575.0, "Hochwert": 5758506.0 }, "geometry": { "type": "Point", "coordinates": [ 7.610917836753721, 51.952298173729012 ] } },
{ "type": "Feature", "properties": { "ID": 668, "Name": "SP WESTERHEIDE             (BALLSPIELPLATZ)", "Groesse": 800.0, "Bereich": "B\/C", "Ball": 1, "Skater": "", "Streetball": "", "Rechtswert": 3409185.0, "Hochwert": 5766983.0 }, "geometry": { "type": "Point", "coordinates": [ 7.675710806633995, 52.029235323586242 ] } },
{ "type": "Feature", "properties": { "ID": 669, "Name": "SP WACHOLDERWEG", "Groesse": 748.0, "Bereich": "B\/C", "Ball": 0, "Skater": "", "Streetball": "", "Rechtswert": 3411573.0, "Hochwert": 5763851.0 }, "geometry": { "type": "Point", "coordinates": [ 7.711303742915798, 52.001479610261576 ] } },
{ "type": "Feature", "properties": { "ID": 670, "Name": "SP ZWI-SCHULMANN-WEG", "Groesse": 2000.0, "Bereich": "B\/C", "Ball": 0, "Skater": "", "Streetball": "", "Rechtswert": 3409284.0, "Hochwert": 5756359.0 }, "geometry": { "type": "Point", "coordinates": [ 7.679959230327217, 51.933794570950738 ] } },
{ "type": "Feature", "properties": { "ID": 671, "Name": "SP GALLENKAMP", "Groesse": 727.0, "Bereich": "B\/C", "Ball": 0, "Skater": "", "Streetball": "", "Rechtswert": 3408208.0, "Hochwert": 5759210.0 }, "geometry": { "type": "Point", "coordinates": [ 7.663558633620285, 51.959234585953915 ] } },
{ "type": "Feature", "properties": { "ID": 672, "Name": "SP HERDINGSTRASSE", "Groesse": 1784.0, "Bereich": "B\/C", "Ball": 0, "Skater": "", "Streetball": "", "Rechtswert": 3405717.0, "Hochwert": 5757770.0 }, "geometry": { "type": "Point", "coordinates": [ 7.627725525528201, 51.945879897745279 ] } },
{ "type": "Feature", "properties": { "ID": 673, "Name": "SP SCHÜRBUSCH", "Groesse": 944.0, "Bereich": "B\/C", "Ball": 0, "Skater": "", "Streetball": "", "Rechtswert": 3402811.0, "Hochwert": 5755993.0 }, "geometry": { "type": "Point", "coordinates": [ 7.585977089163818, 51.929414306414564 ] } },
{ "type": "Feature", "properties": { "ID": 674, "Name": "SP GOLDAPER STRASSE", "Groesse": 3048.0, "Bereich": "B\/C", "Ball": 2, "Skater": "", "Streetball": "", "Rechtswert": 3400071.0, "Hochwert": 5758570.0 }, "geometry": { "type": "Point", "coordinates": [ 7.545407714486176, 51.952082843952169 ] } },
{ "type": "Feature", "properties": { "ID": 675, "Name": "SP DIRK-VON-MERVELDT-STRASSE", "Groesse": 2082.0, "Bereich": "A", "Ball": 2, "Skater": "", "Streetball": "ja", "Rechtswert": 3412276.0, "Hochwert": 5754651.0 }, "geometry": { "type": "Point", "coordinates": [ 7.72388495360215, 51.918927054643987 ] } },
{ "type": "Feature", "properties": { "ID": 676, "Name": "SP PAUL-KLEE-WEG", "Groesse": 1000.0, "Bereich": "B\/C", "Ball": 2, "Skater": "", "Streetball": "", "Rechtswert": 3409224.0, "Hochwert": 5752731.0 }, "geometry": { "type": "Point", "coordinates": [ 7.680042523904172, 51.901186742718806 ] } },
{ "type": "Feature", "properties": { "ID": 677, "Name": "SP DREIZEHNERSTRASSE", "Groesse": 1475.0, "Bereich": "A", "Ball": 0, "Skater": "", "Streetball": "", "Rechtswert": 3404593.0, "Hochwert": 5762062.0 }, "geometry": { "type": "Point", "coordinates": [ 7.610192439469442, 51.984251205935095 ] } },
{ "type": "Feature", "properties": { "ID": 792, "Name": "SP ARNETHSTRASSE", "Groesse": 386.0, "Bereich": "C", "Ball": 0, "Skater": "", "Streetball": "", "Rechtswert": 3403382.0, "Hochwert": 5763714.0 }, "geometry": { "type": "Point", "coordinates": [ 7.592105742439185, 51.998884802688742 ] } },
{ "type": "Feature", "properties": { "ID": 793, "Name": "SP SERVATIIPLATZ", "Groesse": 764.0, "Bereich": "B\/C", "Ball": 0, "Skater": "", "Streetball": "", "Rechtswert": 3406225.0, "Hochwert": 5759394.0 }, "geometry": { "type": "Point", "coordinates": [ 7.63466868945427, 51.960557190053116 ] } },
{ "type": "Feature", "properties": { "ID": 794, "Name": "SP VERDISTRASSE", "Groesse": 1205.0, "Bereich": "B\/C", "Ball": 0, "Skater": "", "Streetball": "", "Rechtswert": 3406897.0, "Hochwert": 5753883.0 }, "geometry": { "type": "Point", "coordinates": [ 7.64593231531093, 51.911153818216754 ] } },
{ "type": "Feature", "properties": { "ID": 795, "Name": "SP DIEKBREE", "Groesse": 700.0, "Bereich": "B\/C", "Ball": 0, "Skater": "", "Streetball": "", "Rechtswert": 3411096.0, "Hochwert": 5761739.0 }, "geometry": { "type": "Point", "coordinates": [ 7.70490687754622, 51.982426942307569 ] } },
{ "type": "Feature", "properties": { "ID": 796, "Name": "SP BOCKHORSTSTRASSE", "Groesse": 486.0, "Bereich": "B\/C", "Ball": 0, "Skater": "", "Streetball": "", "Rechtswert": 3408902.0, "Hochwert": 5753185.0 }, "geometry": { "type": "Point", "coordinates": [ 7.675245604966721, 51.90521347800879 ] } },
{ "type": "Feature", "properties": { "ID": 797, "Name": "SP STREETBALLFLÄCHE NORMANNENWEG", "Groesse": 260.0, "Bereich": "B", "Ball": 0, "Skater": "", "Streetball": "ja", "Rechtswert": 3408502.0, "Hochwert": 5754734.0 }, "geometry": { "type": "Point", "coordinates": [ 7.669024078493094, 51.919065892722735 ] } },
{ "type": "Feature", "properties": { "ID": 798, "Name": "SP TENGENKAMP", "Groesse": 2908.0, "Bereich": "B\/C", "Ball": 0, "Skater": "", "Streetball": "", "Rechtswert": 3404193.0, "Hochwert": 5750162.0 }, "geometry": { "type": "Point", "coordinates": [ 7.607682000912219, 51.877262788228826 ] } },
{ "type": "Feature", "properties": { "ID": 799, "Name": "SP BIRKENHEIDE I           (BALLSPIELPLATZ)", "Groesse": 2534.0, "Bereich": "A", "Ball": 1, "Skater": "", "Streetball": "", "Rechtswert": 3409461.0, "Hochwert": 5755017.0 }, "geometry": { "type": "Point", "coordinates": [ 7.682884715854972, 51.921765335555989 ] } },
{ "type": "Feature", "properties": { "ID": 800, "Name": "SP HEROLDSTRASSE (HEIDBUSCH)", "Groesse": 2700.0, "Bereich": "A+B\/C", "Ball": 2, "Skater": "", "Streetball": "", "Rechtswert": 3401977.0, "Hochwert": 5754948.0 }, "geometry": { "type": "Point", "coordinates": [ 7.57415346131706, 51.919879143904524 ] } },
{ "type": "Feature", "properties": { "ID": 801, "Name": "SP GIEVENBACHTAL", "Groesse": 1237.0, "Bereich": "A+B\/C", "Ball": 0, "Skater": "", "Streetball": "", "Rechtswert": 3401833.0, "Hochwert": 5760705.0 }, "geometry": { "type": "Point", "coordinates": [ 7.570418892731576, 51.971578617114858 ] } },
{ "type": "Feature", "properties": { "ID": 802, "Name": "SP GIEVENBACHTAL", "Groesse": 1237.0, "Bereich": "A+B\/C", "Ball": 0, "Skater": "", "Streetball": "", "Rechtswert": 3401833.0, "Hochwert": 5760705.0 }, "geometry": { "type": "Point", "coordinates": [ 7.570418892731576, 51.971578617114858 ] } },
{ "type": "Feature", "properties": { "ID": 803, "Name": "SP POTSTIEGE", "Groesse": 1021.0, "Bereich": "B\/C", "Ball": 0, "Skater": "", "Streetball": "", "Rechtswert": 3402455.0, "Hochwert": 5759949.0 }, "geometry": { "type": "Point", "coordinates": [ 7.579681761888097, 51.964895620681112 ] } },
{ "type": "Feature", "properties": { "ID": 804, "Name": "SP POTSTIEGE", "Groesse": 1021.0, "Bereich": "B\/C", "Ball": 0, "Skater": "", "Streetball": "", "Rechtswert": 3402455.0, "Hochwert": 5759949.0 }, "geometry": { "type": "Point", "coordinates": [ 7.579681761888097, 51.964895620681112 ] } },
{ "type": "Feature", "properties": { "ID": 805, "Name": "SP ÜBERWASSERSCHULE", "Groesse": 800.0, "Bereich": "B\/C", "Ball": 0, "Skater": "", "Streetball": "", "Rechtswert": 3405233.0, "Hochwert": 5759876.0 }, "geometry": { "type": "Point", "coordinates": [ 7.620108354276115, 51.96471983228615 ] } },
{ "type": "Feature", "properties": { "ID": 806, "Name": "SP MATTHIAS-CLAUDIUS-SCHULE", "Groesse": 329.0, "Bereich": "B\/C", "Ball": 0, "Skater": "", "Streetball": "", "Rechtswert": 3404630.0, "Hochwert": 5757020.0 }, "geometry": { "type": "Point", "coordinates": [ 7.612129403523039, 51.938956129473766 ] } },
{ "type": "Feature", "properties": { "ID": 807, "Name": "SP MATTHIAS-CLAUDIUS-SCHULE", "Groesse": 329.0, "Bereich": "B\/C", "Ball": 0, "Skater": "", "Streetball": "", "Rechtswert": 3404630.0, "Hochwert": 5757020.0 }, "geometry": { "type": "Point", "coordinates": [ 7.612129403523039, 51.938956129473766 ] } },
{ "type": "Feature", "properties": { "ID": 808, "Name": "SP ZUMSANDEPLATZ", "Groesse": 2392.0, "Bereich": "A+B\/C", "Ball": 2, "Skater": "", "Streetball": "", "Rechtswert": 3406700.0, "Hochwert": 5759258.0 }, "geometry": { "type": "Point", "coordinates": [ 7.641613958215803, 51.959415082817912 ] } },
{ "type": "Feature", "properties": { "ID": 809, "Name": "SP AN DER MEERWIESE-SÜD", "Bereich": "", "Skater": "", "Streetball": "", "Rechtswert": 3407242.0, "Hochwert": 5762219.0 }, "geometry": { "type": "Point", "coordinates": [ 7.648697234239671, 51.986110081757211 ] } },
{ "type": "Feature", "properties": { "ID": 810, "Name": "SP AN DER MEERWIESE-SÜD", "Bereich": "", "Skater": "", "Streetball": "", "Rechtswert": 3407242.0, "Hochwert": 5762219.0 }, "geometry": { "type": "Point", "coordinates": [ 7.648697234239671, 51.986110081757211 ] } },
{ "type": "Feature", "properties": { "ID": 811, "Name": "SP WICHERNSTRASSE", "Groesse": 1510.0, "Bereich": "B\/C", "Ball": 0, "Skater": "", "Streetball": "", "Rechtswert": 3405540.0, "Hochwert": 5760823.0 }, "geometry": { "type": "Point", "coordinates": [ 7.624313436243672, 51.973280690114187 ] } },
{ "type": "Feature", "properties": { "ID": 812, "Name": "SP TRESCKOWSTRASSE", "Groesse": 800.0, "Bereich": "B\/C", "Ball": 0, "Skater": "", "Streetball": "ja", "Rechtswert": 3403455.0, "Hochwert": 5756541.0 }, "geometry": { "type": "Point", "coordinates": [ 7.595183100375764, 51.934449955099545 ] } },
{ "type": "Feature", "properties": { "ID": 813, "Name": "SP MARTIN-LUTHER-SCHULE", "Groesse": 500.0, "Bereich": "B\/C", "Ball": 0, "Skater": "", "Streetball": "", "Rechtswert": 3405757.0, "Hochwert": 5760421.0 }, "geometry": { "type": "Point", "coordinates": [ 7.627580598736032, 51.969705586969148 ] } },
{ "type": "Feature", "properties": { "ID": 814, "Name": "SP HANS-BREDOW-WEG", "Groesse": 5174.0, "Bereich": "A", "Ball": 0, "Skater": "", "Streetball": "", "Rechtswert": 3408712.0, "Hochwert": 5759010.0 }, "geometry": { "type": "Point", "coordinates": [ 7.670941731838763, 51.957520491563386 ] } },
{ "type": "Feature", "properties": { "ID": 815, "Name": "SP HEIDKÖTTERSWEG", "Groesse": 515.0, "Bereich": "B\/C", "Ball": 0, "Skater": "", "Streetball": "", "Rechtswert": 3403428.0, "Hochwert": 5764005.0 }, "geometry": { "type": "Point", "coordinates": [ 7.592693406186735, 52.001507338192646 ] } },
{ "type": "Feature", "properties": { "ID": 816, "Name": "SP TELGENWEG", "Groesse": 1628.0, "Bereich": "B\/C", "Ball": 0, "Skater": "", "Streetball": "", "Rechtswert": 3411716.0, "Hochwert": 5763758.0 }, "geometry": { "type": "Point", "coordinates": [ 7.713409412357649, 52.00066673561718 ] } },
{ "type": "Feature", "properties": { "ID": 817, "Name": "SP OSSENKAMPSTIEGE", "Groesse": 694.0, "Bereich": "B\/C", "Ball": 0, "Skater": "", "Streetball": "", "Rechtswert": 3403308.0, "Hochwert": 5756609.0 }, "geometry": { "type": "Point", "coordinates": [ 7.593027331896311, 51.935035420790804 ] } },
{ "type": "Feature", "properties": { "ID": 818, "Name": "SP AM BLÜTENHAIN", "Groesse": 681.0, "Bereich": "B\/C", "Ball": 0, "Skater": "", "Streetball": "", "Rechtswert": 3398768.0, "Hochwert": 5755293.0 }, "geometry": { "type": "Point", "coordinates": [ 7.527424913618818, 51.922405123103459 ] } },
{ "type": "Feature", "properties": { "ID": 819, "Name": "SP WIERLING", "Groesse": 1350.0, "Bereich": "B\/C", "Ball": 0, "Skater": "", "Streetball": "", "Rechtswert": 3398456.0, "Hochwert": 5755398.0 }, "geometry": { "type": "Point", "coordinates": [ 7.522860341946898, 51.923291729298413 ] } },
{ "type": "Feature", "properties": { "ID": 820, "Name": "SP WIEDEIKEN", "Groesse": 830.0, "Bereich": "B\/C", "Ball": 0, "Skater": "", "Streetball": "", "Rechtswert": 3404474.0, "Hochwert": 5750261.0 }, "geometry": { "type": "Point", "coordinates": [ 7.611733864205985, 51.87820046719964 ] } },
{ "type": "Feature", "properties": { "ID": 821, "Name": "SP MATTHIAS-CLAUDIUS-SCHULE", "Groesse": 329.0, "Bereich": "B\/C", "Ball": 0, "Skater": "", "Streetball": "", "Rechtswert": 3404630.0, "Hochwert": 5757020.0 }, "geometry": { "type": "Point", "coordinates": [ 7.612129403523039, 51.938956129473766 ] } },
{ "type": "Feature", "properties": { "ID": 822, "Name": "SP MATTHIAS-CLAUDIUS-SCHULE", "Groesse": 329.0, "Bereich": "B\/C", "Ball": 0, "Skater": "", "Streetball": "", "Rechtswert": 3404630.0, "Hochwert": 5757020.0 }, "geometry": { "type": "Point", "coordinates": [ 7.612129403523039, 51.938956129473766 ] } },
{ "type": "Feature", "properties": { "ID": 823, "Name": "SP FALGERSTRASSE", "Groesse": 1600.0, "Bereich": "B\/C", "Ball": 2, "Skater": "", "Streetball": "", "Rechtswert": 3406006.0, "Hochwert": 5761116.0 }, "geometry": { "type": "Point", "coordinates": [ 7.63101263556857, 51.975992198822432 ] } },
{ "type": "Feature", "properties": { "ID": 824, "Name": "SP FALGERSTRASSE", "Groesse": 1600.0, "Bereich": "B\/C", "Ball": 2, "Skater": "", "Streetball": "", "Rechtswert": 3406006.0, "Hochwert": 5761116.0 }, "geometry": { "type": "Point", "coordinates": [ 7.63101263556857, 51.975992198822432 ] } },
{ "type": "Feature", "properties": { "ID": 825, "Name": "SP VIVALDISTRASSE", "Bereich": "", "Skater": "", "Streetball": "", "Rechtswert": 3406812.0, "Hochwert": 5761580.0 }, "geometry": { "type": "Point", "coordinates": [ 7.642613188281381, 51.980296826377504 ] } },
{ "type": "Feature", "properties": { "ID": 826, "Name": "SP ARNIKAWEG", "Groesse": 1560.0, "Bereich": "B\/C", "Ball": 0, "Skater": "", "Streetball": "", "Rechtswert": 3403931.0, "Hochwert": 5750709.0 }, "geometry": { "type": "Point", "coordinates": [ 7.603726457972481, 51.88213250670367 ] } },
{ "type": "Feature", "properties": { "ID": 827, "Name": "SP AASEE: MECKLENBECKER STRASSE", "Groesse": 866.0, "Bereich": "B\/C", "Ball": 0, "Skater": "", "Streetball": "", "Rechtswert": 3403962.0, "Hochwert": 5757922.0 }, "geometry": { "type": "Point", "coordinates": [ 7.602167193339966, 51.94694562791129 ] } },
{ "type": "Feature", "properties": { "ID": 828, "Name": "SP AASEE: MECKLENBECKER STRASSE", "Groesse": 866.0, "Bereich": "B\/C", "Ball": 0, "Skater": "", "Streetball": "", "Rechtswert": 3403962.0, "Hochwert": 5757922.0 }, "geometry": { "type": "Point", "coordinates": [ 7.602167193339966, 51.94694562791129 ] } },
{ "type": "Feature", "properties": { "ID": 829, "Name": "SP HÜNENBURG-MITTE", "Groesse": 800.0, "Bereich": "B\/C", "Ball": 0, "Skater": "", "Streetball": "", "Rechtswert": 3405278.0, "Hochwert": 5753634.0 }, "geometry": { "type": "Point", "coordinates": [ 7.622480054415096, 51.908643819490933 ] } },
{ "type": "Feature", "properties": { "ID": 830, "Name": "SP ANGELMODDER WEG", "Groesse": 1850.0, "Bereich": "A", "Ball": 2, "Skater": "", "Streetball": "", "Rechtswert": 3409992.0, "Hochwert": 5755699.0 }, "geometry": { "type": "Point", "coordinates": [ 7.690422869749497, 51.9279792483118 ] } },
{ "type": "Feature", "properties": { "ID": 678, "Name": "SP MIDDELKAMP (alt: OSTHUESHEIDE)", "Groesse": 497.0, "Bereich": "B\/C", "Ball": 0, "Skater": "", "Streetball": "", "Rechtswert": 3409967.0, "Hochwert": 5753855.0 }, "geometry": { "type": "Point", "coordinates": [ 7.690541228475515, 51.911406563543871 ] } },
{ "type": "Feature", "properties": { "ID": 679, "Name": "SP FLEIGESTRASSE", "Groesse": 270.0, "Bereich": "C", "Ball": 0, "Skater": "", "Streetball": "", "Rechtswert": 3405846.0, "Hochwert": 5753439.0 }, "geometry": { "type": "Point", "coordinates": [ 7.630784677024372, 51.906987968599985 ] } },
{ "type": "Feature", "properties": { "ID": 680, "Name": "SP BESSELWEG", "Groesse": 500.0, "Bereich": "B\/C", "Ball": 0, "Skater": "", "Streetball": "", "Rechtswert": 3402358.0, "Hochwert": 5760678.0 }, "geometry": { "type": "Point", "coordinates": [ 7.578063794592358, 51.971428434826272 ] } },
{ "type": "Feature", "properties": { "ID": 681, "Name": "SP AN DER ALTEN KIRCHE", "Groesse": 4749.0, "Bereich": "A", "Ball": 2, "Skater": "", "Streetball": "ja", "Rechtswert": 3405949.0, "Hochwert": 5753221.0 }, "geometry": { "type": "Point", "coordinates": [ 7.632340355209959, 51.905046628841696 ] } },
{ "type": "Feature", "properties": { "ID": 682, "Name": "SP STETTINER STRASSE", "Groesse": 1152.0, "Bereich": "B\/C", "Ball": 0, "Skater": "", "Streetball": "", "Rechtswert": 3407038.0, "Hochwert": 5760631.0 }, "geometry": { "type": "Point", "coordinates": [ 7.646158373899481, 51.97180796523886 ] } },
{ "type": "Feature", "properties": { "ID": 683, "Name": "SP HOHE GEEST", "Groesse": 2013.0, "Bereich": "B\/C", "Ball": 2, "Skater": "", "Streetball": "", "Rechtswert": 3406139.0, "Hochwert": 5754402.0 }, "geometry": { "type": "Point", "coordinates": [ 7.634778841514102, 51.915689905543864 ] } },
{ "type": "Feature", "properties": { "ID": 684, "Name": "SP HANSES-KETTELER-STRASSE", "Groesse": 2598.0, "Bereich": "A+B\/C", "Ball": 2, "Skater": "", "Streetball": "", "Rechtswert": 3407197.0, "Hochwert": 5753090.0 }, "geometry": { "type": "Point", "coordinates": [ 7.650504097032006, 51.904078706240199 ] } },
{ "type": "Feature", "properties": { "ID": 685, "Name": "SP HOPPENGARTEN-NORD       (BALLSPIELPLATZ)", "Groesse": 685.0, "Bereich": "A+B\/C", "Ball": 1, "Skater": "", "Streetball": "", "Rechtswert": 3407415.0, "Hochwert": 5761300.0 }, "geometry": { "type": "Point", "coordinates": [ 7.651462541790911, 51.97788176812837 ] } },
{ "type": "Feature", "properties": { "ID": 686, "Name": "SP KÖNIGSBERGER STRASSE", "Groesse": 2894.0, "Bereich": "A+B\/C", "Ball": 0, "Skater": "", "Streetball": "", "Rechtswert": 3406799.0, "Hochwert": 5763013.0 }, "geometry": { "type": "Point", "coordinates": [ 7.64203501537513, 51.993169993149117 ] } },
{ "type": "Feature", "properties": { "ID": 687, "Name": "SP POTSTIEGE", "Groesse": 1021.0, "Bereich": "B\/C", "Ball": 0, "Skater": "", "Streetball": "", "Rechtswert": 3402455.0, "Hochwert": 5759949.0 }, "geometry": { "type": "Point", "coordinates": [ 7.579681761888097, 51.964895620681112 ] } },
{ "type": "Feature", "properties": { "ID": 688, "Name": "SP POTSTIEGE", "Groesse": 1021.0, "Bereich": "B\/C", "Ball": 0, "Skater": "", "Streetball": "", "Rechtswert": 3402455.0, "Hochwert": 5759949.0 }, "geometry": { "type": "Point", "coordinates": [ 7.579681761888097, 51.964895620681112 ] } },
{ "type": "Feature", "properties": { "ID": 689, "Name": "SP LANGEWORTH", "Groesse": 645.0, "Bereich": "B\/C", "Ball": 0, "Skater": "", "Streetball": "", "Rechtswert": 3403241.0, "Hochwert": 5763583.0 }, "geometry": { "type": "Point", "coordinates": [ 7.590090285621762, 51.997683278086043 ] } },
{ "type": "Feature", "properties": { "ID": 690, "Name": "SP PAPPELWEG", "Groesse": 769.0, "Bereich": "B\/C", "Ball": 0, "Skater": "", "Streetball": "", "Rechtswert": 3407580.0, "Hochwert": 5753662.0 }, "geometry": { "type": "Point", "coordinates": [ 7.655914203738619, 51.909281775312756 ] } },
{ "type": "Feature", "properties": { "ID": 691, "Name": "SP MARKWEG", "Groesse": 407.0, "Bereich": "B\/C", "Ball": 0, "Skater": "", "Streetball": "", "Rechtswert": 3407527.0, "Hochwert": 5761571.0 }, "geometry": { "type": "Point", "coordinates": [ 7.65301913655516, 51.980335321369751 ] } },
{ "type": "Feature", "properties": { "ID": 692, "Name": "SP TER-BORCH-STRASSE", "Groesse": 838.0, "Bereich": "B\/C", "Ball": 0, "Skater": "", "Streetball": "", "Rechtswert": 3405132.0, "Hochwert": 5755532.0 }, "geometry": { "type": "Point", "coordinates": [ 7.619836757575556, 51.925672358798472 ] } },
{ "type": "Feature", "properties": { "ID": 693, "Name": "SP AM PASTORENBUSCH", "Groesse": 3185.0, "Bereich": "A", "Ball": 2, "Skater": "", "Streetball": "ja", "Rechtswert": 3401082.0, "Hochwert": 5762924.0 }, "geometry": { "type": "Point", "coordinates": [ 7.558854947870858, 51.991382361460758 ] } },
{ "type": "Feature", "properties": { "ID": 694, "Name": "SP AM PASTORENBUSCH", "Groesse": 3185.0, "Bereich": "A", "Ball": 2, "Skater": "", "Streetball": "ja", "Rechtswert": 3401082.0, "Hochwert": 5762924.0 }, "geometry": { "type": "Point", "coordinates": [ 7.558854947870858, 51.991382361460758 ] } },
{ "type": "Feature", "properties": { "ID": 695, "Name": "SP AM PASTORENBUSCH", "Groesse": 3185.0, "Bereich": "A", "Ball": 2, "Skater": "", "Streetball": "ja", "Rechtswert": 3401082.0, "Hochwert": 5762924.0 }, "geometry": { "type": "Point", "coordinates": [ 7.558854947870858, 51.991382361460758 ] } },
{ "type": "Feature", "properties": { "ID": 696, "Name": "SP BAININGSTRASSE", "Groesse": 2311.0, "Bereich": "B\/C", "Ball": 0, "Skater": "ja", "Streetball": "ja", "Rechtswert": 3405481.0, "Hochwert": 5752265.0 }, "geometry": { "type": "Point", "coordinates": [ 7.625804115978746, 51.89637786432661 ] } },
{ "type": "Feature", "properties": { "ID": 697, "Name": "SP AN DER KONRADKIRCHE", "Groesse": 1000.0, "Bereich": "B\/C", "Ball": 0, "Skater": "", "Streetball": "", "Rechtswert": 3409221.0, "Hochwert": 5759627.0 }, "geometry": { "type": "Point", "coordinates": [ 7.678181296627523, 51.963147544173232 ] } },
{ "type": "Feature", "properties": { "ID": 698, "Name": "SP COERDEPLATZ             (BALLSPIELPLATZ)", "Groesse": 560.0, "Bereich": "A+B\/C", "Ball": 1, "Skater": "", "Streetball": "", "Rechtswert": 3405852.0, "Hochwert": 5760281.0 }, "geometry": { "type": "Point", "coordinates": [ 7.629000899406577, 51.968463791744639 ] } },
{ "type": "Feature", "properties": { "ID": 699, "Name": "SP EICHENDORFF-SCHULE", "Groesse": 1139.0, "Bereich": "B\/C", "Ball": 0, "Skater": "", "Streetball": "ja", "Rechtswert": 3410350.0, "Hochwert": 5754197.0 }, "geometry": { "type": "Point", "coordinates": [ 7.696016664893906, 51.914541236207079 ] } },
{ "type": "Feature", "properties": { "ID": 700, "Name": "SP BIRKENHEIDE II", "Groesse": 2857.0, "Bereich": "A", "Ball": 0, "Skater": "", "Streetball": "", "Rechtswert": 3409344.0, "Hochwert": 5754993.0 }, "geometry": { "type": "Point", "coordinates": [ 7.681190829629422, 51.921530667577478 ] } },
{ "type": "Feature", "properties": { "ID": 701, "Name": "SP MARTIN-NIEMÜLLER-PARK", "Groesse": 5100.0, "Bereich": "A+B\/C", "Ball": 2, "Skater": "", "Streetball": "", "Rechtswert": 3405012.0, "Hochwert": 5760756.0 }, "geometry": { "type": "Point", "coordinates": [ 7.616650660403598, 51.972588789782421 ] } },
{ "type": "Feature", "properties": { "ID": 702, "Name": "SP STODTBROCKWEG           (BALLSPIELPLATZ)", "Bereich": "", "Skater": "", "Streetball": "", "Rechtswert": 3399368.0, "Hochwert": 5759481.0 }, "geometry": { "type": "Point", "coordinates": [ 7.534919163315341, 51.960141098375502 ] } },
{ "type": "Feature", "properties": { "ID": 703, "Name": "SP HORSTMARER LANDWEG", "Groesse": 1225.0, "Bereich": "B\/C", "Ball": 2, "Skater": "", "Streetball": "", "Rechtswert": 3403720.0, "Hochwert": 5760510.0 }, "geometry": { "type": "Point", "coordinates": [ 7.597924104210342, 51.970156408178731 ] } },
{ "type": "Feature", "properties": { "ID": 704, "Name": "SP JAHNSTRASSE", "Groesse": 549.0, "Bereich": "B\/C", "Ball": 0, "Skater": "", "Streetball": "", "Rechtswert": 3404812.0, "Hochwert": 5761218.0 }, "geometry": { "type": "Point", "coordinates": [ 7.613613124219793, 51.976705577980923 ] } },
{ "type": "Feature", "properties": { "ID": 705, "Name": "SP GOLDBRINK", "Groesse": 785.0, "Bereich": "B\/C", "Ball": 0, "Skater": "", "Streetball": "", "Rechtswert": 3412184.0, "Hochwert": 5755128.0 }, "geometry": { "type": "Point", "coordinates": [ 7.722426559372509, 51.92319854027852 ] } },
{ "type": "Feature", "properties": { "ID": 706, "Name": "SP HERRENSTRASSE", "Groesse": 432.0, "Bereich": "B\/C", "Ball": 0, "Skater": "", "Streetball": "", "Rechtswert": 3412793.0, "Hochwert": 5754469.0 }, "geometry": { "type": "Point", "coordinates": [ 7.731443519457565, 51.917372880795128 ] } },
{ "type": "Feature", "properties": { "ID": 707, "Name": "SP BRÜNINGHEIDE", "Groesse": 170.0, "Bereich": "C", "Ball": 0, "Skater": "", "Streetball": "", "Rechtswert": 3403537.0, "Hochwert": 5763911.0 }, "geometry": { "type": "Point", "coordinates": [ 7.594306541314605, 52.000681711562272 ] } },
{ "type": "Feature", "properties": { "ID": 708, "Name": "SP GIGASSTRASSE", "Groesse": 899.0, "Bereich": "B\/C", "Ball": 0, "Skater": "", "Streetball": "", "Rechtswert": 3405158.0, "Hochwert": 5755829.0 }, "geometry": { "type": "Point", "coordinates": [ 7.62013284160702, 51.928345299979867 ] } },
{ "type": "Feature", "properties": { "ID": 709, "Name": "SP ZEPPELINSTRASSE", "Groesse": 508.0, "Bereich": "B\/C", "Ball": 0, "Skater": "", "Streetball": "", "Rechtswert": 3406058.0, "Hochwert": 5760355.0 }, "geometry": { "type": "Point", "coordinates": [ 7.631977237567994, 51.969163496919755 ] } },
{ "type": "Feature", "properties": { "ID": 710, "Name": "SP JOHANNE-WALHORN-WEG", "Groesse": 580.0, "Bereich": "B\/C", "Ball": 0, "Skater": "", "Streetball": "", "Rechtswert": 3406532.0, "Hochwert": 5759705.0 }, "geometry": { "type": "Point", "coordinates": [ 7.639049124633099, 51.963403148606744 ] } },
{ "type": "Feature", "properties": { "ID": 711, "Name": "SP GLUCKWEG", "Groesse": 2230.0, "Bereich": "A+B\/C", "Ball": 2, "Skater": "", "Streetball": "", "Rechtswert": 3406862.0, "Hochwert": 5761797.0 }, "geometry": { "type": "Point", "coordinates": [ 7.643281854348826, 51.982254926585661 ] } },
{ "type": "Feature", "properties": { "ID": 712, "Name": "SP KREUZSCHANZE", "Groesse": 1382.0, "Bereich": "B\/C", "Ball": 0, "Skater": "", "Streetball": "", "Rechtswert": 3405368.0, "Hochwert": 5760244.0 }, "geometry": { "type": "Point", "coordinates": [ 7.621970636344252, 51.968049232646038 ] } },
{ "type": "Feature", "properties": { "ID": 713, "Name": "SP KARDINALSTRASSE", "Groesse": 2345.0, "Bereich": "A+B\/C", "Ball": 0, "Skater": "", "Streetball": "", "Rechtswert": 3406814.0, "Hochwert": 5753310.0 }, "geometry": { "type": "Point", "coordinates": [ 7.644881314145805, 51.905991534513191 ] } },
{ "type": "Feature", "properties": { "ID": 714, "Name": "SP TOPPHEIDEWEG", "Groesse": 5700.0, "Bereich": "A+B\/C", "Ball": 0, "Skater": "", "Streetball": "", "Rechtswert": 3401962.0, "Hochwert": 5761154.0 }, "geometry": { "type": "Point", "coordinates": [ 7.572167347799775, 51.975635473261406 ] } },
{ "type": "Feature", "properties": { "ID": 715, "Name": "SP DREI EICHEN, NORD", "Groesse": 742.0, "Bereich": "B\/C", "Ball": 0, "Skater": "", "Streetball": "", "Rechtswert": 3411683.0, "Hochwert": 5763388.0 }, "geometry": { "type": "Point", "coordinates": [ 7.713024269037617, 51.997336995011871 ] } },
{ "type": "Feature", "properties": { "ID": 716, "Name": "SP VOSSBUSCH", "Groesse": 1300.0, "Bereich": "B\/C", "Ball": 2, "Skater": "", "Streetball": "", "Rechtswert": 3409026.0, "Hochwert": 5758563.0 }, "geometry": { "type": "Point", "coordinates": [ 7.675626509359105, 51.953555595331572 ] } },
{ "type": "Feature", "properties": { "ID": 717, "Name": "SP THEODOR-HEUSS-STRASSE", "Groesse": 568.0, "Bereich": "B\/C", "Ball": 0, "Skater": "", "Streetball": "", "Rechtswert": 3410191.0, "Hochwert": 5754309.0 }, "geometry": { "type": "Point", "coordinates": [ 7.693677319356044, 51.915521976842001 ] } },
{ "type": "Feature", "properties": { "ID": 718, "Name": "SP BODELSCHWINGHSCHULE", "Groesse": 422.0, "Bereich": "B\/C", "Ball": 0, "Skater": "", "Streetball": "", "Rechtswert": 3406913.0, "Hochwert": 5759289.0 }, "geometry": { "type": "Point", "coordinates": [ 7.644703349524193, 51.959729285999373 ] } },
{ "type": "Feature", "properties": { "ID": 719, "Name": "SP GASSELSTIEGE - NORD", "Groesse": 681.0, "Bereich": "B\/C", "Ball": 0, "Skater": "", "Streetball": "", "Rechtswert": 3404547.0, "Hochwert": 5760820.0 }, "geometry": { "type": "Point", "coordinates": [ 7.609868225207057, 51.973084214210012 ] } },
{ "type": "Feature", "properties": { "ID": 720, "Name": "SP TÖMMERSWEG", "Groesse": 1688.0, "Bereich": "A?", "Ball": 0, "Skater": "", "Streetball": "", "Rechtswert": 3405270.0, "Hochwert": 5767826.0 }, "geometry": { "type": "Point", "coordinates": [ 7.618451230803753, 52.036155135921227 ] } },
{ "type": "Feature", "properties": { "ID": 721, "Name": "SP LECHTERSTRASSE", "Groesse": 491.0, "Bereich": "B\/C", "Ball": 0, "Skater": "", "Streetball": "", "Rechtswert": 3404963.0, "Hochwert": 5755623.0 }, "geometry": { "type": "Point", "coordinates": [ 7.61735566002659, 51.926461182310419 ] } },
{ "type": "Feature", "properties": { "ID": 722, "Name": "SP AM LÜTKEBACH", "Groesse": 959.0, "Bereich": "B\/C", "Ball": 0, "Skater": "", "Streetball": "", "Rechtswert": 3407668.0, "Hochwert": 5757151.0 }, "geometry": { "type": "Point", "coordinates": [ 7.656257651135801, 51.940645148245771 ] } },
{ "type": "Feature", "properties": { "ID": 723, "Name": "SP MARGARETENSCHULE, BRENTANOWEG 18", "Groesse": 540.0, "Bereich": "B\/C", "Ball": 0, "Skater": "", "Streetball": "ja", "Rechtswert": 3408910.0, "Hochwert": 5758437.0 }, "geometry": { "type": "Point", "coordinates": [ 7.673973020251149, 51.952404504142088 ] } },
{ "type": "Feature", "properties": { "ID": 724, "Name": "SP ZUM GUTEN HIRTEN", "Groesse": 1043.0, "Bereich": "B\/C", "Ball": 0, "Skater": "", "Streetball": "", "Rechtswert": 3407881.0, "Hochwert": 5759640.0 }, "geometry": { "type": "Point", "coordinates": [ 7.658687664419431, 51.963044097772624 ] } },
{ "type": "Feature", "properties": { "ID": 725, "Name": "SP LAERER LANDWEG", "Groesse": 1271.0, "Bereich": "B\/C", "Ball": 2, "Skater": "", "Streetball": "ja", "Rechtswert": 3408548.0, "Hochwert": 5758726.0 }, "geometry": { "type": "Point", "coordinates": [ 7.668632180760475, 51.954941813755433 ] } },
{ "type": "Feature", "properties": { "ID": 726, "Name": "SP KRANICHWEG", "Groesse": 660.0, "Bereich": "B\/C", "Ball": 0, "Skater": "", "Streetball": "", "Rechtswert": 3409357.0, "Hochwert": 5755987.0 }, "geometry": { "type": "Point", "coordinates": [ 7.681118226815781, 51.930463994968285 ] } },
{ "type": "Feature", "properties": { "ID": 727, "Name": "SP MERGELBERG-NORD", "Groesse": 4500.0, "Bereich": "A", "Ball": 0, "Skater": "ja", "Streetball": "ja", "Rechtswert": 3401148.0, "Hochwert": 5760478.0 }, "geometry": { "type": "Point", "coordinates": [ 7.560519485982389, 51.969417802519956 ] } },
{ "type": "Feature", "properties": { "ID": 728, "Name": "SP AM KÄMPKEN", "Groesse": 2757.0, "Bereich": "A+B\/C", "Ball": 2, "Skater": "", "Streetball": "", "Rechtswert": 3398672.0, "Hochwert": 5755084.0 }, "geometry": { "type": "Point", "coordinates": [ 7.526091398724774, 51.920509904886963 ] } },
{ "type": "Feature", "properties": { "ID": 729, "Name": "SP GUSTAV-FREYTAG-\/ HEINR.-VON-KLEIST-STR.", "Groesse": 1821.0, "Bereich": "B\/C", "Ball": 2, "Skater": "", "Streetball": "", "Rechtswert": 3400564.0, "Hochwert": 5763074.0 }, "geometry": { "type": "Point", "coordinates": [ 7.551272846290035, 51.992637620344468 ] } },
{ "type": "Feature", "properties": { "ID": 730, "Name": "SP SPRICKMANNSTRASSE 10", "Groesse": 350.0, "Bereich": "C", "Ball": 0, "Skater": "", "Streetball": "", "Rechtswert": 3403693.0, "Hochwert": 5763632.0 }, "geometry": { "type": "Point", "coordinates": [ 7.596655698269426, 51.998202041667177 ] } },
{ "type": "Feature", "properties": { "ID": 731, "Name": "SP NORDMARK", "Groesse": 3250.0, "Bereich": "A", "Ball": 0, "Skater": "", "Streetball": "", "Rechtswert": 3404017.0, "Hochwert": 5764136.0 }, "geometry": { "type": "Point", "coordinates": [ 7.601230791809849, 52.002786388028447 ] } },
{ "type": "Feature", "properties": { "ID": 732, "Name": "SP GRONOWSKISTRASSE", "Groesse": 2456.0, "Bereich": "B\/C", "Ball": 0, "Skater": "", "Streetball": "", "Rechtswert": 3401514.0, "Hochwert": 5760378.0 }, "geometry": { "type": "Point", "coordinates": [ 7.565872099534285, 51.968584256567659 ] } },
{ "type": "Feature", "properties": { "ID": 733, "Name": "SP GEISTSCHULE", "Groesse": 2000.0, "Bereich": "B\/C", "Ball": 0, "Skater": "", "Streetball": "ja", "Rechtswert": 3405268.0, "Hochwert": 5756987.0 }, "geometry": { "type": "Point", "coordinates": [ 7.621412975798697, 51.938768522040959 ] } },
{ "type": "Feature", "properties": { "ID": 734, "Name": "SP HELENE-WEIGEL-WEG, alt: EINKAUFZENTRUM MEESENSTIEGE", "Groesse": 4460.0, "Bereich": "A+B\/C", "Ball": 2, "Skater": "", "Streetball": "ja", "Rechtswert": 3405280.0, "Hochwert": 5752918.0 }, "geometry": { "type": "Point", "coordinates": [ 7.622705717603383, 51.902210942087102 ] } },
{ "type": "Feature", "properties": { "ID": 735, "Name": "SP KÖSLINER STRASSE", "Groesse": 1580.0, "Bereich": "B\/C", "Ball": 0, "Skater": "", "Streetball": "", "Rechtswert": 3407006.0, "Hochwert": 5761238.0 }, "geometry": { "type": "Point", "coordinates": [ 7.645528550026746, 51.977256462692161 ] } },
{ "type": "Feature", "properties": { "ID": 736, "Name": "SP DRENSTEINFURTWEG", "Groesse": 1460.0, "Bereich": "B\/C", "Ball": 0, "Skater": "", "Streetball": "", "Rechtswert": 3404005.0, "Hochwert": 5755806.0 }, "geometry": { "type": "Point", "coordinates": [ 7.603382340154272, 51.927941169212382 ] } },
{ "type": "Feature", "properties": { "ID": 737, "Name": "SP KÖRNERSTRASSE", "Groesse": 615.0, "Bereich": "B\/C", "Ball": 0, "Skater": "", "Streetball": "", "Rechtswert": 3404976.0, "Hochwert": 5758568.0 }, "geometry": { "type": "Point", "coordinates": [ 7.61673169515026, 51.952923834082469 ] } },
{ "type": "Feature", "properties": { "ID": 738, "Name": "SP EMIL-NOLDE-WEG", "Groesse": 625.0, "Bereich": "B\/C", "Ball": 0, "Skater": "", "Streetball": "", "Rechtswert": 3409043.0, "Hochwert": 5752656.0 }, "geometry": { "type": "Point", "coordinates": [ 7.677433276691096, 51.900483359250302 ] } },
{ "type": "Feature", "properties": { "ID": 739, "Name": "SP MEINERTZSTRASSE", "Groesse": 800.0, "Bereich": "B\/C", "Ball": 0, "Skater": "", "Streetball": "", "Rechtswert": 3403677.0, "Hochwert": 5764090.0 }, "geometry": { "type": "Point", "coordinates": [ 7.596294211643109, 52.002314255735662 ] } },
{ "type": "Feature", "properties": { "ID": 740, "Name": "SP FRESNOSTRASSE           (BALLSPIELPLATZ)", "Groesse": 1055.0, "Bereich": "A", "Ball": 1, "Skater": "", "Streetball": "ja", "Rechtswert": 3404598.0, "Hochwert": 5762196.0 }, "geometry": { "type": "Point", "coordinates": [ 7.61022796455164, 51.985456023384657 ] } },
{ "type": "Feature", "properties": { "ID": 741, "Name": "SP GELMERHEIDE", "Groesse": 582.0, "Bereich": "B\/C", "Ball": 0, "Skater": "", "Streetball": "", "Rechtswert": 3408854.0, "Hochwert": 5766860.0 }, "geometry": { "type": "Point", "coordinates": [ 7.670922076734082, 52.028075920057226 ] } },
{ "type": "Feature", "properties": { "ID": 742, "Name": "SP WERSEAUE", "Groesse": 1014.0, "Bereich": "B\/C", "Ball": 0, "Skater": "", "Streetball": "", "Rechtswert": 3410759.0, "Hochwert": 5761900.0 }, "geometry": { "type": "Point", "coordinates": [ 7.699961232857008, 51.983819551519218 ] } },
{ "type": "Feature", "properties": { "ID": 743, "Name": "SP AN DER VOGELRUTE", "Groesse": 797.0, "Bereich": "B\/C", "Ball": 0, "Skater": "", "Streetball": "", "Rechtswert": 3412315.0, "Hochwert": 5753874.0 }, "geometry": { "type": "Point", "coordinates": [ 7.724649293454966, 51.911951620821334 ] } },
{ "type": "Feature", "properties": { "ID": 744, "Name": "SP GESCHERWEG - WEST", "Groesse": 820.0, "Bereich": "B\/C", "Ball": 0, "Skater": "", "Streetball": "", "Rechtswert": 3402048.0, "Hochwert": 5761005.0 }, "geometry": { "type": "Point", "coordinates": [ 7.57346099156832, 51.974311913636143 ] } },
{ "type": "Feature", "properties": { "ID": 745, "Name": "SP GESCHERWEG - WEST", "Groesse": 820.0, "Bereich": "B\/C", "Ball": 0, "Skater": "", "Streetball": "", "Rechtswert": 3402048.0, "Hochwert": 5761005.0 }, "geometry": { "type": "Point", "coordinates": [ 7.57346099156832, 51.974311913636143 ] } },
{ "type": "Feature", "properties": { "ID": 746, "Name": "SP STEVENINKSTRASSE", "Groesse": 1836.0, "Bereich": "B\/C", "Ball": 0, "Skater": "", "Streetball": "", "Rechtswert": 3405280.0, "Hochwert": 5757839.0 }, "geometry": { "type": "Point", "coordinates": [ 7.621352957201146, 51.946425680207099 ] } },
{ "type": "Feature", "properties": { "ID": 747, "Name": "SP GOTTFRIED-VON-CAPPENBERG-SCHULE, Glatzer Weg 9", "Groesse": 480.0, "Bereich": "B\/C", "Ball": 0, "Skater": "", "Streetball": "", "Rechtswert": 3404584.0, "Hochwert": 5756441.0 }, "geometry": { "type": "Point", "coordinates": [ 7.61162115788928, 51.933746020971654 ] } },
{ "type": "Feature", "properties": { "ID": 748, "Name": "SP HANSAPLATZ", "Groesse": 3300.0, "Bereich": "A+B\/C", "Ball": 2, "Skater": "", "Streetball": "", "Rechtswert": 3406917.0, "Hochwert": 5758786.0 }, "geometry": { "type": "Point", "coordinates": [ 7.644897669574879, 51.955210528779169 ] } },
{ "type": "Feature", "properties": { "ID": 749, "Name": "SP APPELBREISTIEGE", "Groesse": 725.0, "Bereich": "B\/C", "Ball": 0, "Skater": "", "Streetball": "", "Rechtswert": 3402750.0, "Hochwert": 5760141.0 }, "geometry": { "type": "Point", "coordinates": [ 7.58391821142722, 51.966672324345339 ] } },
{ "type": "Feature", "properties": { "ID": 750, "Name": "SP AM TINNENBUSCH", "Groesse": 635.0, "Bereich": "B\/C", "Ball": 0, "Skater": "", "Streetball": "", "Rechtswert": 3398973.0, "Hochwert": 5754866.0 }, "geometry": { "type": "Point", "coordinates": [ 7.530528916960129, 51.918605920607767 ] } },
{ "type": "Feature", "properties": { "ID": 751, "Name": "SP PICTORIUSSTRASSE (BEGEGNUNGSRAUM)", "Groesse": 1699.0, "Bereich": "B\/C", "Ball": 0, "Skater": "", "Streetball": "", "Rechtswert": 3405213.0, "Hochwert": 5755523.0 }, "geometry": { "type": "Point", "coordinates": [ 7.621016369131665, 51.925605280723744 ] } },
{ "type": "Feature", "properties": { "ID": 752, "Name": "SP JOSEFSCHULE, HERMANNSTRASSE 58", "Groesse": 950.0, "Bereich": "B\/C", "Ball": 0, "Skater": "", "Streetball": "Balltrichter", "Rechtswert": 3405458.0, "Hochwert": 5758321.0 }, "geometry": { "type": "Point", "coordinates": [ 7.623808507583127, 51.950786646556388 ] } },
{ "type": "Feature", "properties": { "ID": 753, "Name": "SP SCHÜTZENHOF", "Groesse": 1613.0, "Bereich": "B\/C", "Ball": 2, "Skater": "", "Streetball": "ja", "Rechtswert": 3405482.0, "Hochwert": 5757721.0 }, "geometry": { "type": "Point", "coordinates": [ 7.624322296917812, 51.945399793470429 ] } },
{ "type": "Feature", "properties": { "ID": 831, "Name": "SP MAXIMILIANSTRASSE-SÜD", "Groesse": 740.0, "Bereich": "B\/C", "Ball": 0, "Skater": "", "Streetball": "", "Rechtswert": 3406122.0, "Hochwert": 5760471.0 }, "geometry": { "type": "Point", "coordinates": [ 7.632876536463765, 51.97021654692157 ] } },
{ "type": "Feature", "properties": { "ID": 832, "Name": "SP DREI EICHEN             (BALLSPIELPLATZ)", "Groesse": 800.0, "Bereich": "B\/C", "Ball": 1, "Skater": "", "Streetball": "", "Rechtswert": 3411660.0, "Hochwert": 5763108.0 }, "geometry": { "type": "Point", "coordinates": [ 7.712761563428638, 51.994817503113872 ] } },
{ "type": "Feature", "properties": { "ID": 833, "Name": "SP HAUS ANGELMODDE", "Groesse": 915.0, "Bereich": "B\/C", "Ball": 0, "Skater": "", "Streetball": "", "Rechtswert": 3410729.0, "Hochwert": 5754844.0 }, "geometry": { "type": "Point", "coordinates": [ 7.70135574563998, 51.920415504520342 ] } },
{ "type": "Feature", "properties": { "ID": 834, "Name": "SP MEMMERTWEG-NORD", "Groesse": 1137.0, "Bereich": "A", "Ball": 0, "Skater": "", "Streetball": "", "Rechtswert": 3405170.0, "Hochwert": 5763507.0 }, "geometry": { "type": "Point", "coordinates": [ 7.618189404774695, 51.997332943360917 ] } },
{ "type": "Feature", "properties": { "ID": 835, "Name": "SP MEMMERTWEG-NORD", "Groesse": 1137.0, "Bereich": "A", "Ball": 0, "Skater": "", "Streetball": "", "Rechtswert": 3405170.0, "Hochwert": 5763507.0 }, "geometry": { "type": "Point", "coordinates": [ 7.618189404774695, 51.997332943360917 ] } },
{ "type": "Feature", "properties": { "ID": 836, "Name": "SP MÜHLENSTRASSE", "Groesse": 3040.0, "Bereich": "A+B\/C", "Ball": 0, "Skater": "", "Streetball": "", "Rechtswert": 3405248.0, "Hochwert": 5759252.0 }, "geometry": { "type": "Point", "coordinates": [ 7.620498499827576, 51.95911584327348 ] } },
{ "type": "Feature", "properties": { "ID": 837, "Name": "SP HEGERSKAMP", "Groesse": 2946.0, "Bereich": "A+B\/C", "Ball": 2, "Skater": "", "Streetball": "", "Rechtswert": 3408789.0, "Hochwert": 5757953.0 }, "geometry": { "type": "Point", "coordinates": [ 7.672341817256887, 51.948035921197466 ] } },
{ "type": "Feature", "properties": { "ID": 838, "Name": "SP AM PASTORENBUSCH", "Groesse": 3185.0, "Bereich": "A", "Ball": 2, "Skater": "", "Streetball": "ja", "Rechtswert": 3401082.0, "Hochwert": 5762924.0 }, "geometry": { "type": "Point", "coordinates": [ 7.558854947870858, 51.991382361460758 ] } },
{ "type": "Feature", "properties": { "ID": 839, "Name": "SP AM PASTORENBUSCH", "Groesse": 3185.0, "Bereich": "A", "Ball": 2, "Skater": "", "Streetball": "ja", "Rechtswert": 3401082.0, "Hochwert": 5762924.0 }, "geometry": { "type": "Point", "coordinates": [ 7.558854947870858, 51.991382361460758 ] } },
{ "type": "Feature", "properties": { "ID": 840, "Name": "SP AM PASTORENBUSCH", "Groesse": 3185.0, "Bereich": "A", "Ball": 2, "Skater": "", "Streetball": "ja", "Rechtswert": 3401082.0, "Hochwert": 5762924.0 }, "geometry": { "type": "Point", "coordinates": [ 7.558854947870858, 51.991382361460758 ] } },
{ "type": "Feature", "properties": { "ID": 841, "Name": "SP DREIFALTIGKEITSSCHULE", "Groesse": 959.0, "Bereich": "B\/C", "Ball": 0, "Skater": "", "Streetball": "Balltrichter", "Rechtswert": 3404909.0, "Hochwert": 5760986.0 }, "geometry": { "type": "Point", "coordinates": [ 7.615088594378264, 51.974637696817375 ] } },
{ "type": "Feature", "properties": { "ID": 842, "Name": "SP ALSENSTRASSE", "Groesse": 1505.0, "Bereich": "B\/C", "Ball": 0, "Skater": "", "Streetball": "", "Rechtswert": 3406791.0, "Hochwert": 5760392.0 }, "geometry": { "type": "Point", "coordinates": [ 7.642629946098321, 51.96961923666435 ] } },
{ "type": "Feature", "properties": { "ID": 843, "Name": "SP EICHENWEG SÜD", "Groesse": 488.0, "Bereich": "B\/C", "Ball": 0, "Skater": "", "Streetball": "", "Rechtswert": 3399712.0, "Hochwert": 5758262.0 }, "geometry": { "type": "Point", "coordinates": [ 7.540277430763528, 51.949251036884981 ] } },
{ "type": "Feature", "properties": { "ID": 844, "Name": "SP AN DER MEERWIESE-MITTE", "Bereich": "", "Skater": "", "Streetball": "", "Rechtswert": 3407366.0, "Hochwert": 5762508.0 }, "geometry": { "type": "Point", "coordinates": [ 7.650423733587914, 51.988727397321327 ] } },
{ "type": "Feature", "properties": { "ID": 845, "Name": "SP AN DER MEERWIESE-MITTE", "Bereich": "", "Skater": "", "Streetball": "", "Rechtswert": 3407366.0, "Hochwert": 5762508.0 }, "geometry": { "type": "Point", "coordinates": [ 7.650423733587914, 51.988727397321327 ] } },
{ "type": "Feature", "properties": { "ID": 846, "Name": "SP AM EDELBACH", "Groesse": 2111.0, "Bereich": "A+B\/C", "Ball": 0, "Skater": "", "Streetball": "", "Rechtswert": 3407661.0, "Hochwert": 5763093.0 }, "geometry": { "type": "Point", "coordinates": [ 7.654559522770757, 51.994032657870306 ] } },
{ "type": "Feature", "properties": { "ID": 847, "Name": "SP AM EDELBACH", "Groesse": 2111.0, "Bereich": "A+B\/C", "Ball": 0, "Skater": "", "Streetball": "", "Rechtswert": 3407661.0, "Hochwert": 5763093.0 }, "geometry": { "type": "Point", "coordinates": [ 7.654559522770757, 51.994032657870306 ] } },
{ "type": "Feature", "properties": { "ID": 848, "Name": "SP ADMIRAL-SPEE-STRASSE", "Groesse": 950.0, "Bereich": "B\/C", "Ball": 0, "Skater": "", "Streetball": "", "Rechtswert": 3408128.0, "Hochwert": 5760144.0 }, "geometry": { "type": "Point", "coordinates": [ 7.662145542157645, 51.967613372265696 ] } },
{ "type": "Feature", "properties": { "ID": 849, "Name": "SP ENGELENSCHANZE", "Groesse": 140.0, "Bereich": "C", "Ball": 0, "Skater": "", "Streetball": "", "Rechtswert": 3405953.0, "Hochwert": 5759050.0 }, "geometry": { "type": "Point", "coordinates": [ 7.630806836502447, 51.95742048531401 ] } },
{ "type": "Feature", "properties": { "ID": 850, "Name": "SP RINKERODEWEG", "Groesse": 417.0, "Bereich": "B\/C", "Ball": 0, "Skater": "", "Streetball": "", "Rechtswert": 3404075.0, "Hochwert": 5756354.0 }, "geometry": { "type": "Point", "coordinates": [ 7.604247049162259, 51.932876914989308 ] } },
{ "type": "Feature", "properties": { "ID": 851, "Name": "SP SCHÖPPINGENWEG", "Groesse": 417.0, "Bereich": "B\/C", "Ball": 0, "Skater": "", "Streetball": "", "Rechtswert": 3402322.0, "Hochwert": 5760901.0 }, "geometry": { "type": "Point", "coordinates": [ 7.577476707593776, 51.973425695083549 ] } },
{ "type": "Feature", "properties": { "ID": 852, "Name": "SP AGATHASTRASSE", "Groesse": 991.0, "Bereich": "B\/C", "Ball": 0, "Skater": "", "Streetball": "", "Rechtswert": 3409811.0, "Hochwert": 5755884.0 }, "geometry": { "type": "Point", "coordinates": [ 7.687743839998749, 51.929612223608487 ] } },
{ "type": "Feature", "properties": { "ID": 853, "Name": "SP VÖGEDINGPLATZ", "Groesse": 3681.0, "Bereich": "A+B\/C", "Ball": 0, "Skater": "", "Streetball": "", "Rechtswert": 3400573.0, "Hochwert": 5763464.0 }, "geometry": { "type": "Point", "coordinates": [ 7.551290834806832, 51.996143197460761 ] } },
{ "type": "Feature", "properties": { "ID": 854, "Name": "SP AM HAUS NIENBERGE", "Groesse": 750.0, "Bereich": "B\/C", "Ball": 0, "Skater": "", "Streetball": "", "Rechtswert": 3400945.0, "Hochwert": 5763756.0 }, "geometry": { "type": "Point", "coordinates": [ 7.556620968169012, 51.998833111192191 ] } },
{ "type": "Feature", "properties": { "ID": 855, "Name": "SP MAX-REGER-STRASSE", "Groesse": 914.0, "Bereich": "B\/C", "Ball": 0, "Skater": "", "Streetball": "", "Rechtswert": 3406544.0, "Hochwert": 5753551.0 }, "geometry": { "type": "Point", "coordinates": [ 7.640893909134845, 51.908111729001703 ] } },
{ "type": "Feature", "properties": { "ID": 856, "Name": "SP TRINITATISKIRCHE, STRASSBURGER WEG", "Groesse": 1160.0, "Bereich": "B\/C", "Ball": 0, "Skater": "", "Streetball": "", "Rechtswert": 3405326.0, "Hochwert": 5757524.0 }, "geometry": { "type": "Point", "coordinates": [ 7.622108416858097, 51.943603267827626 ] } },
{ "type": "Feature", "properties": { "ID": 857, "Name": "SP DAUVEMÜHLE", "Groesse": 1138.0, "Bereich": "B\/C", "Ball": 0, "Skater": "", "Streetball": "", "Rechtswert": 3403922.0, "Hochwert": 5762649.0 }, "geometry": { "type": "Point", "coordinates": [ 7.600264198868393, 51.989409699591278 ] } },
{ "type": "Feature", "properties": { "ID": 858, "Name": "SP DYCKBURGSTRASSE", "Groesse": 582.0, "Bereich": "B\/C", "Ball": 0, "Skater": "", "Streetball": "", "Rechtswert": 3410158.0, "Hochwert": 5763230.0 }, "geometry": { "type": "Point", "coordinates": [ 7.690867523621678, 51.995672881612926 ] } },
{ "type": "Feature", "properties": { "ID": 859, "Name": "SP KÖSTERS KÄMPKEN", "Groesse": 785.0, "Bereich": "B\/C", "Ball": 0, "Skater": "", "Streetball": "", "Rechtswert": 3399728.0, "Hochwert": 5758565.0 }, "geometry": { "type": "Point", "coordinates": [ 7.540421755734468, 51.951976239257903 ] } },
{ "type": "Feature", "properties": { "ID": 860, "Name": "SP DAHLIENWEG", "Groesse": 656.0, "Bereich": "B\/C", "Ball": 0, "Skater": "", "Streetball": "", "Rechtswert": 3408393.0, "Hochwert": 5752851.0 }, "geometry": { "type": "Point", "coordinates": [ 7.667940454838578, 51.902129044884319 ] } },
{ "type": "Feature", "properties": { "ID": 861, "Name": "SP TANNENBERGSTRASSE", "Groesse": 963.0, "Bereich": "B\/C", "Ball": 2, "Skater": "", "Streetball": "", "Rechtswert": 3405832.0, "Hochwert": 5760870.0 }, "geometry": { "type": "Point", "coordinates": [ 7.628548562496127, 51.97375249055294 ] } },
{ "type": "Feature", "properties": { "ID": 862, "Name": "SP GASSELSTIEGE - SÜD", "Groesse": 590.0, "Bereich": "B\/C", "Ball": 0, "Skater": "", "Streetball": "", "Rechtswert": 3404635.0, "Hochwert": 5760608.0 }, "geometry": { "type": "Point", "coordinates": [ 7.611207270093483, 51.971194532193586 ] } },
{ "type": "Feature", "properties": { "ID": 863, "Name": "SP FERNHOLZSTRASSE", "Groesse": 2100.0, "Bereich": "A+B\/C", "Ball": 2, "Skater": "", "Streetball": "ja", "Rechtswert": 3403282.0, "Hochwert": 5763127.0 }, "geometry": { "type": "Point", "coordinates": [ 7.590815595256283, 51.993593400049036 ] } },
{ "type": "Feature", "properties": { "ID": 864, "Name": "SP AM NATURDENKMAL", "Groesse": 1895.0, "Bereich": "A", "Ball": 0, "Skater": "", "Streetball": "", "Rechtswert": 3405043.0, "Hochwert": 5755788.0 }, "geometry": { "type": "Point", "coordinates": [ 7.618472803344177, 51.927957329991408 ] } },
{ "type": "Feature", "properties": { "ID": 865, "Name": "SP AUF DEM DRAUN", "Groesse": 2353.0, "Bereich": "B\/C", "Ball": 0, "Skater": "", "Streetball": "", "Rechtswert": 3403350.0, "Hochwert": 5758583.0 }, "geometry": { "type": "Point", "coordinates": [ 7.593083489273975, 51.952778648447804 ] } },
{ "type": "Feature", "properties": { "ID": 866, "Name": "SP MARIENSCHULE", "Groesse": 500.0, "Bereich": "B\/C", "Ball": 0, "Skater": "", "Streetball": "", "Rechtswert": 3399110.0, "Hochwert": 5758880.0 }, "geometry": { "type": "Point", "coordinates": [ 7.531343349742035, 51.954694693137114 ] } },
{ "type": "Feature", "properties": { "ID": 867, "Name": "SP GARTENSTIEGE", "Groesse": 1971.0, "Bereich": "B\/C", "Ball": 0, "Skater": "", "Streetball": "", "Rechtswert": 3401267.0, "Hochwert": 5763622.0 }, "geometry": { "type": "Point", "coordinates": [ 7.561346507246969, 51.997686482322983 ] } },
{ "type": "Feature", "properties": { "ID": 868, "Name": "SP KILLINGSTRASSE", "Groesse": 786.0, "Bereich": "B\/C", "Ball": 0, "Skater": "", "Streetball": "", "Rechtswert": 3403518.0, "Hochwert": 5763801.0 }, "geometry": { "type": "Point", "coordinates": [ 7.594060900519417, 51.999690098373001 ] } },
{ "type": "Feature", "properties": { "ID": 869, "Name": "SP IM DAHL", "Groesse": 2664.0, "Bereich": "A", "Ball": 2, "Skater": "", "Streetball": "ja", "Rechtswert": 3406515.0, "Hochwert": 5754144.0 }, "geometry": { "type": "Point", "coordinates": [ 7.640311865133725, 51.913434970756867 ] } },
{ "type": "Feature", "properties": { "ID": 870, "Name": "SP PATRONATSSTRASSE", "Groesse": 550.0, "Bereich": "B\/C", "Ball": 0, "Skater": "", "Streetball": "", "Rechtswert": 3406375.0, "Hochwert": 5753199.0 }, "geometry": { "type": "Point", "coordinates": [ 7.638534395109736, 51.904920654411342 ] } },
{ "type": "Feature", "properties": { "ID": 871, "Name": "SP FREIBURGER WEG", "Groesse": 668.0, "Bereich": "B\/C", "Ball": 0, "Skater": "", "Streetball": "", "Rechtswert": 3405088.0, "Hochwert": 5757253.0 }, "geometry": { "type": "Point", "coordinates": [ 7.618723022395569, 51.941127850205149 ] } },
{ "type": "Feature", "properties": { "ID": 872, "Name": "SP PÖTTERHOEK", "Groesse": 1364.0, "Bereich": "B\/C", "Ball": 0, "Skater": "", "Streetball": "", "Rechtswert": 3407695.0, "Hochwert": 5760668.0 }, "geometry": { "type": "Point", "coordinates": [ 7.6557062424528, 51.972249820241117 ] } },
{ "type": "Feature", "properties": { "ID": 873, "Name": "SP AM HOF SCHULTMANN", "Groesse": 700.0, "Bereich": "B\/C", "Ball": 0, "Skater": "", "Streetball": "", "Rechtswert": 3402271.0, "Hochwert": 5755855.0 }, "geometry": { "type": "Point", "coordinates": [ 7.578168154520808, 51.928079942861963 ] } },
{ "type": "Feature", "properties": { "ID": 874, "Name": "SP SÜDPARK", "Groesse": 15765.0, "Bereich": "A+B\/C", "Ball": 2, "Skater": "", "Streetball": "", "Rechtswert": 3405874.0, "Hochwert": 5758097.0 }, "geometry": { "type": "Point", "coordinates": [ 7.629918720249489, 51.948844525726457 ] } },
{ "type": "Feature", "properties": { "ID": 875, "Name": "SP GUT INSEL", "Groesse": 6086.0, "Bereich": "A+B\/C", "Ball": 2, "Skater": "", "Streetball": "ja", "Rechtswert": 3404776.0, "Hochwert": 5756870.0 }, "geometry": { "type": "Point", "coordinates": [ 7.614293261613516, 51.937633384386217 ] } },
{ "type": "Feature", "properties": { "ID": 876, "Name": "SP GUT INSEL", "Groesse": 6086.0, "Bereich": "A+B\/C", "Ball": 2, "Skater": "", "Streetball": "ja", "Rechtswert": 3404776.0, "Hochwert": 5756870.0 }, "geometry": { "type": "Point", "coordinates": [ 7.614293261613516, 51.937633384386217 ] } },
{ "type": "Feature", "properties": { "ID": 877, "Name": "SP BÖTTCHERSTRASSE", "Groesse": 1500.0, "Bereich": "B\/C", "Ball": 0, "Skater": "", "Streetball": "", "Rechtswert": 3405119.0, "Hochwert": 5753245.0 }, "geometry": { "type": "Point", "coordinates": [ 7.620277262231626, 51.905121644274921 ] } },
{ "type": "Feature", "properties": { "ID": 878, "Name": "SP WILHELMSTRASSE", "Groesse": 4269.0, "Bereich": "A+B\/C", "Ball": 2, "Skater": "", "Streetball": "", "Rechtswert": 3404578.0, "Hochwert": 5760137.0 }, "geometry": { "type": "Point", "coordinates": [ 7.610508855168252, 51.966952917734886 ] } },
{ "type": "Feature", "properties": { "ID": 879, "Name": "SP JOSEFINE-MAUSER-STRASSE", "Groesse": 1696.0, "Bereich": "B\/C", "Ball": 0, "Skater": "", "Streetball": "", "Rechtswert": 3407379.0, "Hochwert": 5762735.0 }, "geometry": { "type": "Point", "coordinates": [ 7.650551672710452, 51.990769139023826 ] } },
{ "type": "Feature", "properties": { "ID": 880, "Name": "SP AM LODDENBACH           (BALLSPIELPLATZ)", "Groesse": 2060.0, "Bereich": "A", "Ball": 1, "Skater": "", "Streetball": "ja", "Rechtswert": 3409285.0, "Hochwert": 5756550.0 }, "geometry": { "type": "Point", "coordinates": [ 7.679923450156998, 51.935510888917783 ] } },
{ "type": "Feature", "properties": { "ID": 881, "Name": "SP WIENER STRASSE", "Groesse": 761.0, "Bereich": "B\/C", "Ball": 2, "Skater": "", "Streetball": "", "Rechtswert": 3407475.0, "Hochwert": 5760382.0 }, "geometry": { "type": "Point", "coordinates": [ 7.652582735318575, 51.969643573287748 ] } },
{ "type": "Feature", "properties": { "ID": 882, "Name": "SP MALTESERSTRASSE", "Groesse": 3100.0, "Bereich": "A+B\/C", "Ball": 2, "Skater": "", "Streetball": "", "Rechtswert": 3406139.0, "Hochwert": 5752341.0 }, "geometry": { "type": "Point", "coordinates": [ 7.635339685916398, 51.897171848687925 ] } },
{ "type": "Feature", "properties": { "ID": 883, "Name": "SP ELBESTRASSE", "Groesse": 1425.0, "Bereich": "B\/C", "Ball": 0, "Skater": "", "Streetball": "", "Rechtswert": 3407764.0, "Hochwert": 5760374.0 }, "geometry": { "type": "Point", "coordinates": [ 7.656788955279527, 51.969619686078779 ] } },
{ "type": "Feature", "properties": { "ID": 884, "Name": "SP HAUS WIEK", "Groesse": 2800.0, "Bereich": "A", "Ball": 0, "Skater": "", "Streetball": "ja", "Rechtswert": 3398464.0, "Hochwert": 5754588.0 }, "geometry": { "type": "Point", "coordinates": [ 7.523215211230185, 51.916015715179725 ] } },
{ "type": "Feature", "properties": { "ID": 885, "Name": "SP STERNBUSCH", "Groesse": 2700.0, "Bereich": "A", "Ball": 0, "Skater": "", "Streetball": "", "Rechtswert": 3405054.0, "Hochwert": 5755946.0 }, "geometry": { "type": "Point", "coordinates": [ 7.618589121142092, 51.929378817351093 ] } },
{ "type": "Feature", "properties": { "ID": 886, "Name": "SP VON-EINEM-STRASSE", "Groesse": 1743.0, "Bereich": "A+B\/C", "Ball": 2, "Skater": "", "Streetball": "", "Rechtswert": 3404522.0, "Hochwert": 5761892.0 }, "geometry": { "type": "Point", "coordinates": [ 7.609206557656196, 51.982711607265237 ] } },
{ "type": "Feature", "properties": { "ID": 887, "Name": "SP BRESLAUER STRASSE", "Groesse": 2223.0, "Bereich": "A+B\/C", "Ball": 2, "Skater": "", "Streetball": "", "Rechtswert": 3406953.0, "Hochwert": 5763066.0 }, "geometry": { "type": "Point", "coordinates": [ 7.644262040485074, 51.993671993286682 ] } },
{ "type": "Feature", "properties": { "ID": 888, "Name": "SP KIEBITZWEG", "Groesse": 795.0, "Bereich": "B\/C", "Ball": 0, "Skater": "", "Streetball": "", "Rechtswert": 3408011.0, "Hochwert": 5753565.0 }, "geometry": { "type": "Point", "coordinates": [ 7.662201425064318, 51.90848150744042 ] } },
{ "type": "Feature", "properties": { "ID": 889, "Name": "SP SAMLANDUFER", "Groesse": 2659.0, "Bereich": "B\/C", "Ball": 0, "Skater": "", "Streetball": "", "Rechtswert": 3407955.0, "Hochwert": 5762966.0 }, "geometry": { "type": "Point", "coordinates": [ 7.65887271935918, 51.992940335892825 ] } },
{ "type": "Feature", "properties": { "ID": 890, "Name": "SP SAMLANDUFER", "Groesse": 2659.0, "Bereich": "B\/C", "Ball": 0, "Skater": "", "Streetball": "", "Rechtswert": 3407955.0, "Hochwert": 5762966.0 }, "geometry": { "type": "Point", "coordinates": [ 7.65887271935918, 51.992940335892825 ] } },
{ "type": "Feature", "properties": { "ID": 891, "Name": "SP ALTHAUSWEG", "Groesse": 2000.0, "Bereich": "A", "Ball": 0, "Skater": "", "Streetball": "", "Rechtswert": 3404208.0, "Hochwert": 5762902.0 }, "geometry": { "type": "Point", "coordinates": [ 7.604355763558825, 51.991732195666003 ] } },
{ "type": "Feature", "properties": { "ID": 892, "Name": "SP AM DILL", "Groesse": 785.0, "Bereich": "B\/C", "Ball": 0, "Skater": "", "Streetball": "", "Rechtswert": 3401403.0, "Hochwert": 5756189.0 }, "geometry": { "type": "Point", "coordinates": [ 7.565457921656107, 51.930927886559211 ] } },
{ "type": "Feature", "properties": { "ID": 893, "Name": "SP WILKINGHEGE             (BALLSPIELPLATZ)", "Groesse": 1800.0, "Bereich": "A", "Ball": 0, "Skater": "", "Streetball": "", "Rechtswert": 3403635.0, "Hochwert": 5762518.0 }, "geometry": { "type": "Point", "coordinates": [ 7.596124260184176, 51.988183025322279 ] } },
{ "type": "Feature", "properties": { "ID": 894, "Name": "SP HOHER HAINWEG", "Groesse": 1000.0, "Bereich": "B\/C", "Ball": 2, "Skater": "", "Streetball": "", "Rechtswert": 3404506.0, "Hochwert": 5755907.0 }, "geometry": { "type": "Point", "coordinates": [ 7.610635475166645, 51.928934741043918 ] } },
{ "type": "Feature", "properties": { "ID": 895, "Name": "SP RÜPINGSTRASSE", "Groesse": 815.0, "Bereich": "B\/C", "Ball": 0, "Skater": "", "Streetball": "", "Rechtswert": 3404293.0, "Hochwert": 5756936.0 }, "geometry": { "type": "Point", "coordinates": [ 7.607253869599354, 51.938143589618157 ] } },
{ "type": "Feature", "properties": { "ID": 896, "Name": "SP KAPPENBERGER DAMM", "Groesse": 525.0, "Bereich": "B\/C", "Ball": 0, "Skater": "", "Streetball": "", "Rechtswert": 3404493.0, "Hochwert": 5756987.0 }, "geometry": { "type": "Point", "coordinates": [ 7.610147021296986, 51.938636151250485 ] } },
{ "type": "Feature", "properties": { "ID": 897, "Name": "SP NERZWEG", "Groesse": 4277.0, "Bereich": "A+B\/C", "Ball": 2, "Skater": "ja", "Streetball": "ja", "Rechtswert": 3406746.0, "Hochwert": 5763751.0 }, "geometry": { "type": "Point", "coordinates": [ 7.641063054949025, 51.999791937188604 ] } },
{ "type": "Feature", "properties": { "ID": 898, "Name": "SP STADTPARK WIENBURG", "Groesse": 6000.0, "Bereich": "A", "Ball": 2, "Skater": "ja", "Streetball": "", "Rechtswert": 3405716.0, "Hochwert": 5761483.0 }, "geometry": { "type": "Point", "coordinates": [ 7.626692735409952, 51.979240550697106 ] } },
{ "type": "Feature", "properties": { "ID": 899, "Name": "SP TOMKOTTEN", "Groesse": 2150.0, "Bereich": "A", "Ball": 2, "Skater": "", "Streetball": "ja", "Rechtswert": 3411234.0, "Hochwert": 5761820.0 }, "geometry": { "type": "Point", "coordinates": [ 7.706894029166227, 51.983176788338724 ] } },
{ "type": "Feature", "properties": { "ID": 900, "Name": "SP ALTER ZOO", "Groesse": 2380.0, "Bereich": "A+B\/C", "Ball": 2, "Skater": "", "Streetball": "", "Rechtswert": 3404684.0, "Hochwert": 5759484.0 }, "geometry": { "type": "Point", "coordinates": [ 7.612231766355482, 51.961104006470968 ] } },
{ "type": "Feature", "properties": { "ID": 901, "Name": "SP WESELER STRASSE", "Groesse": 3330.0, "Bereich": "A", "Ball": 2, "Skater": "", "Streetball": "", "Rechtswert": 3404519.0, "Hochwert": 5757550.0 }, "geometry": { "type": "Point", "coordinates": [ 7.610368812320474, 51.943699074449952 ] } },
{ "type": "Feature", "properties": { "ID": 902, "Name": "SP STUDTSTRASSE", "Groesse": 819.0, "Bereich": "B\/C", "Ball": 0, "Skater": "", "Streetball": "", "Rechtswert": 3405116.0, "Hochwert": 5760304.0 }, "geometry": { "type": "Point", "coordinates": [ 7.618288423000763, 51.968545399545924 ] } },
{ "type": "Feature", "properties": { "ID": 903, "Name": "SP GUT INSEL", "Groesse": 6086.0, "Bereich": "A+B\/C", "Ball": 2, "Skater": "", "Streetball": "ja", "Rechtswert": 3404776.0, "Hochwert": 5756870.0 }, "geometry": { "type": "Point", "coordinates": [ 7.614293261613516, 51.937633384386217 ] } },
{ "type": "Feature", "properties": { "ID": 904, "Name": "SP GUT INSEL", "Groesse": 6086.0, "Bereich": "A+B\/C", "Ball": 2, "Skater": "", "Streetball": "ja", "Rechtswert": 3404776.0, "Hochwert": 5756870.0 }, "geometry": { "type": "Point", "coordinates": [ 7.614293261613516, 51.937633384386217 ] } },
{ "type": "Feature", "properties": { "ID": 905, "Name": "SP MAURITZ-LINDENWEG", "Groesse": 1612.0, "Bereich": "A+B\/C", "Ball": 0, "Skater": "", "Streetball": "ja", "Rechtswert": 3407853.0, "Hochwert": 5759391.0 }, "geometry": { "type": "Point", "coordinates": [ 7.658347144489674, 51.960802200148763 ] } },
{ "type": "Feature", "properties": { "ID": 906, "Name": "SP AM KANONENGRABEN", "Groesse": 1839.0, "Bereich": "B\/C", "Ball": 0, "Skater": "", "Streetball": "", "Rechtswert": 3405254.0, "Hochwert": 5758935.0 }, "geometry": { "type": "Point", "coordinates": [ 7.620673094947724, 51.956268666450526 ] } },
{ "type": "Feature", "properties": { "ID": 907, "Name": "SP AASEE: TORMINBRÜCKE", "Groesse": 1900.0, "Bereich": "A", "Ball": 2, "Skater": "", "Streetball": "", "Rechtswert": 3403996.0, "Hochwert": 5758394.0 }, "geometry": { "type": "Point", "coordinates": [ 7.602529830947735, 51.951192316654975 ] } },
{ "type": "Feature", "properties": { "ID": 908, "Name": "SP MIDDELFELD", "Groesse": 1917.0, "Bereich": "B\/C", "Ball": 0, "Skater": "", "Streetball": "", "Rechtswert": 3411413.0, "Hochwert": 5762499.0 }, "geometry": { "type": "Point", "coordinates": [ 7.709323569835635, 51.989306244142583 ] } },
{ "type": "Feature", "properties": { "ID": 909, "Name": "SP BERNHARD-POETHER-STRASSE", "Groesse": 654.0, "Bereich": "B\/C", "Ball": 0, "Skater": "", "Streetball": "", "Rechtswert": 3405496.0, "Hochwert": 5753606.0 }, "geometry": { "type": "Point", "coordinates": [ 7.625654627868761, 51.908429237981558 ] } },
{ "type": "Feature", "properties": { "ID": 910, "Name": "SP VON-HOLTE-STRASSE", "Groesse": 645.0, "Bereich": "B\/C", "Ball": 0, "Skater": "", "Streetball": "", "Rechtswert": 3411765.0, "Hochwert": 5754003.0 }, "geometry": { "type": "Point", "coordinates": [ 7.716625515245688, 51.913023921387634 ] } },
{ "type": "Feature", "properties": { "ID": 911, "Name": "SP TULPENWEG", "Groesse": 748.0, "Bereich": "B\/C", "Ball": 0, "Skater": "", "Streetball": "", "Rechtswert": 3408079.0, "Hochwert": 5752978.0 }, "geometry": { "type": "Point", "coordinates": [ 7.663345705825917, 51.903218476148446 ] } },
{ "type": "Feature", "properties": { "ID": 912, "Name": "SP SOESTER STRASSE", "Groesse": 888.0, "Bereich": "B\/C", "Ball": 0, "Skater": "", "Streetball": "", "Rechtswert": 3406421.0, "Hochwert": 5758629.0 }, "geometry": { "type": "Point", "coordinates": [ 7.637727455109521, 51.953716723421657 ] } },
{ "type": "Feature", "properties": { "ID": 913, "Name": "SP FRIEDRICH-EBERT-STRASSE (STREETBALLPLATZ)", "Groesse": 932.0, "Bereich": "B\/C", "Ball": 1, "Skater": "", "Streetball": "ja", "Rechtswert": 3406002.0, "Hochwert": 5758355.0 }, "geometry": { "type": "Point", "coordinates": [ 7.631709363850017, 51.951184258704089 ] } },
{ "type": "Feature", "properties": { "ID": 914, "Name": "SP PARK SENTMARING             (BALLSPIELPLATZ)", "Groesse": 750.0, "Bereich": "A+B\/C", "Ball": 1, "Skater": "", "Streetball": "", "Rechtswert": 3404806.0, "Hochwert": 5757705.0 }, "geometry": { "type": "Point", "coordinates": [ 7.614498437402277, 51.945140867220488 ] } },
{ "type": "Feature", "properties": { "ID": 915, "Name": "SP HUBERTISTRASSE", "Groesse": 2942.0, "Bereich": "A+B\/C", "Ball": 2, "Skater": "", "Streetball": "", "Rechtswert": 3407287.0, "Hochwert": 5758599.0 }, "geometry": { "type": "Point", "coordinates": [ 7.650328708398482, 51.953592096259896 ] } },
{ "type": "Feature", "properties": { "ID": 916, "Name": "SP AN DER MEERWIESE-MITTE", "Bereich": "", "Skater": "", "Streetball": "", "Rechtswert": 3407366.0, "Hochwert": 5762508.0 }, "geometry": { "type": "Point", "coordinates": [ 7.650423733587914, 51.988727397321327 ] } },
{ "type": "Feature", "properties": { "ID": 917, "Name": "SP AN DER MEERWIESE-MITTE", "Bereich": "", "Skater": "", "Streetball": "", "Rechtswert": 3407366.0, "Hochwert": 5762508.0 }, "geometry": { "type": "Point", "coordinates": [ 7.650423733587914, 51.988727397321327 ] } },
{ "type": "Feature", "properties": { "ID": 918, "Name": "SP FALGERSTRASSE", "Groesse": 1600.0, "Bereich": "B\/C", "Ball": 2, "Skater": "", "Streetball": "", "Rechtswert": 3406006.0, "Hochwert": 5761116.0 }, "geometry": { "type": "Point", "coordinates": [ 7.63101263556857, 51.975992198822432 ] } },
{ "type": "Feature", "properties": { "ID": 919, "Name": "SP FALGERSTRASSE", "Groesse": 1600.0, "Bereich": "B\/C", "Ball": 2, "Skater": "", "Streetball": "", "Rechtswert": 3406006.0, "Hochwert": 5761116.0 }, "geometry": { "type": "Point", "coordinates": [ 7.63101263556857, 51.975992198822432 ] } },
{ "type": "Feature", "properties": { "ID": 920, "Name": "SP KEMPERWEG", "Groesse": 2200.0, "Bereich": "A+B\/C", "Ball": 0, "Skater": "", "Streetball": "", "Rechtswert": 3406696.0, "Hochwert": 5762609.0 }, "geometry": { "type": "Point", "coordinates": [ 7.640645727538758, 51.989522822975566 ] } },
{ "type": "Feature", "properties": { "ID": 921, "Name": "SP DÜESBERGWEG", "Groesse": 1700.0, "Bereich": "A", "Ball": 0, "Skater": "", "Streetball": "", "Rechtswert": 3404402.0, "Hochwert": 5756036.0 }, "geometry": { "type": "Point", "coordinates": [ 7.609088188030244, 51.930075950260559 ] } },
{ "type": "Feature", "properties": { "ID": 922, "Name": "SP RINCKLAKEWEG", "Groesse": 1082.0, "Bereich": "B\/C", "Ball": 0, "Skater": "", "Streetball": "", "Rechtswert": 3404984.0, "Hochwert": 5755553.0 }, "geometry": { "type": "Point", "coordinates": [ 7.617680153108822, 51.92583582176816 ] } },
{ "type": "Feature", "properties": { "ID": 923, "Name": "SP MERGELBERG-SÜD", "Groesse": 3043.0, "Bereich": "B\/C", "Ball": 0, "Skater": "", "Streetball": "", "Rechtswert": 3401222.0, "Hochwert": 5760063.0 }, "geometry": { "type": "Point", "coordinates": [ 7.561715180449355, 51.965702332976733 ] } },
{ "type": "Feature", "properties": { "ID": 924, "Name": "SP COERDEPLATZ", "Groesse": 2377.0, "Bereich": "A+B\/C", "Ball": 0, "Skater": "", "Streetball": "", "Rechtswert": 3405874.0, "Hochwert": 5760179.0 }, "geometry": { "type": "Point", "coordinates": [ 7.629348855094757, 51.967551057770571 ] } },
{ "type": "Feature", "properties": { "ID": 925, "Name": "SP DUNANTSTRASSE", "Groesse": 1023.0, "Bereich": "B\/C", "Ball": 0, "Skater": "", "Streetball": "", "Rechtswert": 3404545.0, "Hochwert": 5757813.0 }, "geometry": { "type": "Point", "coordinates": [ 7.610673862546115, 51.94606654401283 ] } },
{ "type": "Feature", "properties": { "ID": 926, "Name": "SP WILLINGROTT", "Groesse": 880.0, "Bereich": "B\/C", "Ball": 0, "Skater": "", "Streetball": "", "Rechtswert": 3411789.0, "Hochwert": 5764109.0 }, "geometry": { "type": "Point", "coordinates": [ 7.714381832895813, 52.003832109093977 ] } },
{ "type": "Feature", "properties": { "ID": 927, "Name": "SP DIEPENBROCKSTRASSE", "Groesse": 729.0, "Bereich": "B\/C", "Ball": 0, "Skater": "", "Streetball": "", "Rechtswert": 3406624.0, "Hochwert": 5759117.0 }, "geometry": { "type": "Point", "coordinates": [ 7.640546934384855, 51.958135461300593 ] } },
{ "type": "Feature", "properties": { "ID": 928, "Name": "SP SCHWARZER KAMP", "Groesse": 1333.0, "Bereich": "B\/C", "Ball": 0, "Skater": "", "Streetball": "", "Rechtswert": 3401575.0, "Hochwert": 5755679.0 }, "geometry": { "type": "Point", "coordinates": [ 7.568103469141613, 51.926376108154201 ] } },
{ "type": "Feature", "properties": { "ID": 929, "Name": "SP SCHULTE-BERND-STRASSE", "Groesse": 552.0, "Bereich": "B\/C", "Ball": 0, "Skater": "", "Streetball": "", "Rechtswert": 3399142.0, "Hochwert": 5758596.0 }, "geometry": { "type": "Point", "coordinates": [ 7.531891942175583, 51.952148890009241 ] } },
{ "type": "Feature", "properties": { "ID": 930, "Name": "SP HOLSENKAMPWEG", "Groesse": 677.0, "Bereich": "B\/C", "Ball": 0, "Skater": "", "Streetball": "", "Rechtswert": 3408402.0, "Hochwert": 5753193.0 }, "geometry": { "type": "Point", "coordinates": [ 7.667980374801417, 51.9052034309425 ] } },
{ "type": "Feature", "properties": { "ID": 931, "Name": "SP KLEIMANNSTRASSE", "Groesse": 1660.0, "Bereich": "A+B\/C", "Ball": 0, "Skater": "", "Streetball": "", "Rechtswert": 3405106.0, "Hochwert": 5760178.0 }, "geometry": { "type": "Point", "coordinates": [ 7.618177747832305, 51.967411605553174 ] } },
{ "type": "Feature", "properties": { "ID": 932, "Name": "SP HOFFMANN-VON-FALLERSLEBEN-WEG", "Groesse": 575.0, "Bereich": "B\/C", "Ball": 0, "Skater": "", "Streetball": "", "Rechtswert": 3406038.0, "Hochwert": 5752856.0 }, "geometry": { "type": "Point", "coordinates": [ 7.63373257876969, 51.90178211503342 ] } },
{ "type": "Feature", "properties": { "ID": 933, "Name": "SP FRANZ-MARC-WEG", "Groesse": 625.0, "Bereich": "B\/C", "Ball": 0, "Skater": "", "Streetball": "", "Rechtswert": 3408692.0, "Hochwert": 5752600.0 }, "geometry": { "type": "Point", "coordinates": [ 7.672349922353158, 51.899922823861743 ] } },
{ "type": "Feature", "properties": { "ID": 934, "Name": "SP FRITZ-PÜTTER-STRASSE", "Groesse": 634.0, "Bereich": "B\/C", "Ball": 0, "Skater": "", "Streetball": "", "Rechtswert": 3405696.0, "Hochwert": 5756748.0 }, "geometry": { "type": "Point", "coordinates": [ 7.627700189727629, 51.936693769425659 ] } },
{ "type": "Feature", "properties": { "ID": 935, "Name": "SP KORBMACHERWEG", "Groesse": 3268.0, "Bereich": "A+B\/C", "Ball": 0, "Skater": "", "Streetball": "", "Rechtswert": 3398833.0, "Hochwert": 5758644.0 }, "geometry": { "type": "Point", "coordinates": [ 7.527384809361981, 51.952524071916869 ] } },
{ "type": "Feature", "properties": { "ID": 936, "Name": "SP MARTIN-NIEMÖLLER-STRASSE", "Groesse": 800.0, "Bereich": "B\/C", "Ball": 0, "Skater": "", "Streetball": "", "Rechtswert": 3404102.0, "Hochwert": 5762864.0 }, "geometry": { "type": "Point", "coordinates": [ 7.602823678338004, 51.991372498494549 ] } },
{ "type": "Feature", "properties": { "ID": 937, "Name": "SP AM BERLER KAMP", "Groesse": 1433.0, "Bereich": "B\/C", "Ball": 0, "Skater": "", "Streetball": "", "Rechtswert": 3411934.0, "Hochwert": 5754531.0 }, "geometry": { "type": "Point", "coordinates": [ 7.718946036945668, 51.917794875545304 ] } },
{ "type": "Feature", "properties": { "ID": 938, "Name": "SP PARKALLEE", "Groesse": 1462.0, "Bereich": "B\/C", "Ball": 0, "Skater": "", "Streetball": "", "Rechtswert": 3409392.0, "Hochwert": 5759405.0 }, "geometry": { "type": "Point", "coordinates": [ 7.680726995617543, 51.961180735723829 ] } },
{ "type": "Feature", "properties": { "ID": 939, "Name": "SP MÖLLMANNSWEG", "Groesse": 3000.0, "Bereich": "A+B\/C", "Ball": 2, "Skater": "ja", "Streetball": "ja", "Rechtswert": 3402849.0, "Hochwert": 5759705.0 }, "geometry": { "type": "Point", "coordinates": [ 7.585481441877317, 51.962772287701199 ] } },
{ "type": "Feature", "properties": { "ID": 940, "Name": "SP NIENKAMP", "Groesse": 1538.0, "Bereich": "B\/C", "Ball": 2, "Skater": "", "Streetball": "", "Rechtswert": 3404887.0, "Hochwert": 5762074.0 }, "geometry": { "type": "Point", "coordinates": [ 7.61446723847716, 51.98440939425538 ] } },
{ "type": "Feature", "properties": { "ID": 941, "Name": "SP WINKELHEIDE", "Groesse": 1098.0, "Bereich": "B\/C", "Ball": 0, "Skater": "", "Streetball": "", "Rechtswert": 3409131.0, "Hochwert": 5766891.0 }, "geometry": { "type": "Point", "coordinates": [ 7.674948631868416, 52.028399870641046 ] } },
{ "type": "Feature", "properties": { "ID": 942, "Name": "SP SCHULCAMPUS ROXEL", "Bereich": "", "Skater": "", "Streetball": "", "Rechtswert": 3398908.0, "Hochwert": 5758887.0 }, "geometry": { "type": "Point", "coordinates": [ 7.528403942581511, 51.954720932262923 ] } },
{ "type": "Feature", "properties": { "ID": 943, "Name": "SP HÖLDERLINWEG", "Groesse": 800.0, "Bereich": "B\/C", "Ball": 0, "Skater": "", "Streetball": "", "Rechtswert": 3405715.0, "Hochwert": 5752679.0 }, "geometry": { "type": "Point", "coordinates": [ 7.629089407978644, 51.900137255423125 ] } },
{ "type": "Feature", "properties": { "ID": 944, "Name": "SP MELCHERSSTRASSE", "Groesse": 2075.0, "Bereich": "B\/C", "Ball": 0, "Skater": "", "Streetball": "ja", "Rechtswert": 3404982.0, "Hochwert": 5760618.0 }, "geometry": { "type": "Point", "coordinates": [ 7.616252390529032, 51.971343761469129 ] } },
{ "type": "Feature", "properties": { "ID": 945, "Name": "SP WESERSTRASSE", "Bereich": "", "Skater": "", "Streetball": "", "Rechtswert": 3408033.0, "Hochwert": 5760468.0 }, "geometry": { "type": "Point", "coordinates": [ 7.660676936933501, 51.970508810633369 ] } },
{ "type": "Feature", "properties": { "ID": 946, "Name": "SP AN DER MEERWIESE-SÜD", "Bereich": "", "Skater": "", "Streetball": "", "Rechtswert": 3407242.0, "Hochwert": 5762219.0 }, "geometry": { "type": "Point", "coordinates": [ 7.648697234239671, 51.986110081757211 ] } },
{ "type": "Feature", "properties": { "ID": 947, "Name": "SP AN DER MEERWIESE-SÜD", "Bereich": "", "Skater": "", "Streetball": "", "Rechtswert": 3407242.0, "Hochwert": 5762219.0 }, "geometry": { "type": "Point", "coordinates": [ 7.648697234239671, 51.986110081757211 ] } },
{ "type": "Feature", "properties": { "ID": 948, "Name": "SP AM EDELBACH", "Groesse": 2111.0, "Bereich": "A+B\/C", "Ball": 0, "Skater": "", "Streetball": "", "Rechtswert": 3407661.0, "Hochwert": 5763093.0 }, "geometry": { "type": "Point", "coordinates": [ 7.654559522770757, 51.994032657870306 ] } },
{ "type": "Feature", "properties": { "ID": 949, "Name": "SP AM EDELBACH", "Groesse": 2111.0, "Bereich": "A+B\/C", "Ball": 0, "Skater": "", "Streetball": "", "Rechtswert": 3407661.0, "Hochwert": 5763093.0 }, "geometry": { "type": "Point", "coordinates": [ 7.654559522770757, 51.994032657870306 ] } },
{ "type": "Feature", "properties": { "ID": 950, "Name": "SP HAMANNPLATZ", "Groesse": 2400.0, "Bereich": "A+B\/C", "Ball": 0, "Skater": "", "Streetball": "", "Rechtswert": 3407222.0, "Hochwert": 5763184.0 }, "geometry": { "type": "Point", "coordinates": [ 7.648145351697914, 51.994777178110759 ] } },
{ "type": "Feature", "properties": { "ID": 951, "Name": "SP CARLO-SCHMID-WEG", "Groesse": 236.0, "Bereich": "C", "Ball": 0, "Skater": "", "Streetball": "", "Rechtswert": 3403582.0, "Hochwert": 5763664.0 }, "geometry": { "type": "Point", "coordinates": [ 7.595031006323197, 51.998470304713251 ] } },
{ "type": "Feature", "properties": { "ID": 952, "Name": "SP EIMERMACHERWEG", "Groesse": 800.0, "Bereich": "B\/C", "Ball": 0, "Skater": "", "Streetball": "", "Rechtswert": 3403439.0, "Hochwert": 5763301.0 }, "geometry": { "type": "Point", "coordinates": [ 7.593051665566877, 51.995184033883973 ] } },
{ "type": "Feature", "properties": { "ID": 953, "Name": "SP JUFFERNKAMP", "Groesse": 865.0, "Bereich": "B\/C", "Ball": 0, "Skater": "", "Streetball": "", "Rechtswert": 3412723.0, "Hochwert": 5754027.0 }, "geometry": { "type": "Point", "coordinates": [ 7.730538286446685, 51.913390413191912 ] } },
{ "type": "Feature", "properties": { "ID": 954, "Name": "SP BREITE LINDEL           (BALLSPIELPLATZ)", "Groesse": 950.0, "Bereich": "A+B\/C", "Ball": 1, "Skater": "", "Streetball": "", "Rechtswert": 3406856.0, "Hochwert": 5762361.0 }, "geometry": { "type": "Point", "coordinates": [ 7.643041549566585, 51.987321402274219 ] } },
{ "type": "Feature", "properties": { "ID": 955, "Name": "SP AASEEMARKT, GOERDELERSTRASSE", "Groesse": 1500.0, "Bereich": "B\/C", "Ball": 0, "Skater": "", "Streetball": "", "Rechtswert": 3404322.0, "Hochwert": 5757750.0 }, "geometry": { "type": "Point", "coordinates": [ 7.607449170217752, 51.945462222670479 ] } },
{ "type": "Feature", "properties": { "ID": 956, "Name": "SP AASEEMARKT, GOERDELERSTRASSE", "Groesse": 1500.0, "Bereich": "B\/C", "Ball": 0, "Skater": "", "Streetball": "", "Rechtswert": 3404322.0, "Hochwert": 5757750.0 }, "geometry": { "type": "Point", "coordinates": [ 7.607449170217752, 51.945462222670479 ] } },
{ "type": "Feature", "properties": { "ID": 957, "Name": "SP RJASANSTRASSE", "Groesse": 3395.0, "Bereich": "A", "Ball": 0, "Skater": "", "Streetball": "", "Rechtswert": 3406182.0, "Hochwert": 5760700.0 }, "geometry": { "type": "Point", "coordinates": [ 7.633686835300138, 51.97228420698849 ] } },
{ "type": "Feature", "properties": { "ID": 958, "Name": "SP DREI EICHEN, MITTE", "Groesse": 243.0, "Bereich": "B\/C", "Ball": 0, "Skater": "", "Streetball": "", "Rechtswert": 3411626.0, "Hochwert": 5763239.0 }, "geometry": { "type": "Point", "coordinates": [ 7.712232940476344, 51.995989148844281 ] } },
{ "type": "Feature", "properties": { "ID": 959, "Name": "SP FELDSTIEGENKAMP", "Groesse": 1863.0, "Bereich": "B\/C", "Ball": 0, "Skater": "", "Streetball": "", "Rechtswert": 3404021.0, "Hochwert": 5763671.0 }, "geometry": { "type": "Point", "coordinates": [ 7.601419116272568, 51.998609190707647 ] } },
{ "type": "Feature", "properties": { "ID": 960, "Name": "SP ZUR WALBEKE", "Groesse": 981.0, "Bereich": "B\/C", "Ball": 0, "Skater": "", "Streetball": "", "Rechtswert": 3413342.0, "Hochwert": 5754655.0 }, "geometry": { "type": "Point", "coordinates": [ 7.739374014780295, 51.919129800090758 ] } },
{ "type": "Feature", "properties": { "ID": 961, "Name": "SP CHRISTOPH-BERNHARD-GRABEN (SP WESTENKAMP)", "Groesse": 3792.0, "Bereich": "A", "Ball": 2, "Skater": "", "Streetball": "", "Rechtswert": 3401963.0, "Hochwert": 5756093.0 }, "geometry": { "type": "Point", "coordinates": [ 7.57362424735902, 51.930164190931904 ] } },
{ "type": "Feature", "properties": { "ID": 962, "Name": "SP HILTRUPER SEE", "Groesse": 2918.0, "Bereich": "A", "Ball": 2, "Skater": "", "Streetball": "", "Rechtswert": 3407436.0, "Hochwert": 5751053.0 }, "geometry": { "type": "Point", "coordinates": [ 7.654522085188216, 51.885815819068384 ] } },
{ "type": "Feature", "properties": { "ID": 963, "Name": "SP IM MOORHOOK", "Groesse": 1200.0, "Bereich": "B\/C", "Ball": 0, "Skater": "", "Streetball": "", "Rechtswert": 3404177.0, "Hochwert": 5762508.0 }, "geometry": { "type": "Point", "coordinates": [ 7.604014584533858, 51.988186864612707 ] } },
{ "type": "Feature", "properties": { "ID": 964, "Name": "SP BRUCHFELDWEG", "Groesse": 485.0, "Bereich": "B\/C", "Ball": 0, "Skater": "", "Streetball": "", "Rechtswert": 3401200.0, "Hochwert": 5761057.0 }, "geometry": { "type": "Point", "coordinates": [ 7.561109413735057, 51.974629125973799 ] } },
{ "type": "Feature", "properties": { "ID": 965, "Name": "SP SCHEIBENSTRASSE", "Groesse": 790.0, "Bereich": "B\/C", "Ball": 0, "Skater": "", "Streetball": "ja", "Rechtswert": 3405650.0, "Hochwert": 5757005.0 }, "geometry": { "type": "Point", "coordinates": [ 7.626961099944843, 51.93899509970548 ] } },
{ "type": "Feature", "properties": { "ID": 966, "Name": "SP HACKLENBURG", "Groesse": 838.0, "Bereich": "B\/C", "Ball": 0, "Skater": "", "Streetball": "", "Rechtswert": 3407172.0, "Hochwert": 5761851.0 }, "geometry": { "type": "Point", "coordinates": [ 7.647778065325731, 51.982791950817514 ] } },
{ "type": "Feature", "properties": { "ID": 967, "Name": "SP  ANTON-AULKE-STRASSE", "Bereich": "", "Skater": "", "Streetball": "", "Rechtswert": 3412054.0, "Hochwert": 5753546.0 }, "geometry": { "type": "Point", "coordinates": [ 7.720940958309674, 51.908963323982555 ] } },
{ "type": "Feature", "properties": { "ID": 968, "Name": "SP SENTRUPER HÖHE (THERESIENSCHULE)", "Bereich": "", "Skater": "", "Streetball": "", "Rechtswert": 3403415.0, "Hochwert": 5758936.0 }, "geometry": { "type": "Point", "coordinates": [ 7.593929541310397, 51.955961550334848 ] } },
{ "type": "Feature", "properties": { "ID": 969, "Name": "SP OSTSTRASSE", "Groesse": 2608.0, "Bereich": "A+B\/C", "Ball": 0, "Skater": "", "Streetball": "", "Rechtswert": 3407055.0, "Hochwert": 5759567.0 }, "geometry": { "type": "Point", "coordinates": [ 7.646693405576888, 51.9622508355855 ] } },
{ "type": "Feature", "properties": { "ID": 970, "Name": "SP BUXTRUP", "Groesse": 2975.0, "Bereich": "A", "Ball": 2, "Skater": "", "Streetball": "ja", "Rechtswert": 3411829.0, "Hochwert": 5753660.0 }, "geometry": { "type": "Point", "coordinates": [ 7.71764307823379, 51.909952100863443 ] } },